{
  "AEY": {
    "name": "Akureyri Airport",
    "city": "Akureyri",
    "country": "IS",
    "lat": 65.6600036621,
    "lon": -18.0727005005
  },
  "BIU": {
    "name": "Bildudalur Airport",
    "city": "Bildudalur",
    "country": "IS",
    "lat": 65.6412963867,
    "lon": -23.5461997986
  },
  "BGJ": {
    "name": "Borgarfjordur eystri Airport",
    "city": "Borgarfjordur eystri",
    "country": "IS",
    "lat": 65.5164031982,
    "lon": -13.8050003052
  },
  "BJD": {
    "name": "Bakkafjordur Airport",
    "city": "Bakkafjordur",
    "country": "IS",
    "lat": 66.0218963623,
    "lon": -14.8243999481
  },
  "BLO": {
    "name": "Hjaltabakki Airport",
    "city": "Blonduos",
    "country": "IS",
    "lat": 65.6449966431,
    "lon": -20.2875003815
  },
  "BQD": {
    "name": "Budardalur Airport",
    "city": "Budardalur",
    "country": "IS",
    "lat": 65.075302124,
    "lon": -21.8003005981
  },
  "BXV": {
    "name": "Breiddalsvik Airport",
    "city": "Breiddalsvik",
    "country": "IS",
    "lat": 64.7900009155,
    "lon": -14.0228004456
  },
  "DJU": {
    "name": "Djupivogur Airport",
    "city": "Djupivogur",
    "country": "IS",
    "lat": 64.644203186,
    "lon": -14.2827997208
  },
  "EGS": {
    "name": "Egilsstadir Airport",
    "city": "Egilsstadir",
    "country": "IS",
    "lat": 65.2833023071,
    "lon": -14.4013996124
  },
  "FAS": {
    "name": "Faskrudsfjordur Airport",
    "city": "Faskrudsfjordur",
    "country": "IS",
    "lat": 64.9317016602,
    "lon": -14.0606002808
  },
  "FAG": {
    "name": "Fagurholsmyri Airport",
    "city": "Fagurholsmyri",
    "country": "IS",
    "lat": 63.8746986389,
    "lon": -16.6410999298
  },
  "GUU": {
    "name": "Grundarfjordur Airport",
    "city": "Grundarfjordur",
    "country": "IS",
    "lat": 64.9914016724,
    "lon": -23.2247009277
  },
  "GJR": {
    "name": "Gjogur Airport",
    "city": "Gjogur",
    "country": "IS",
    "lat": 65.995300293,
    "lon": -21.3269004822
  },
  "GRY": {
    "name": "Grimsey Airport",
    "city": "Grimsey",
    "country": "IS",
    "lat": 66.5458,
    "lon": -18.0173
  },
  "HVK": {
    "name": "Holmavik Airport",
    "city": "Holmavik",
    "country": "IS",
    "lat": 65.7046966553,
    "lon": -21.6963996887
  },
  "HFN": {
    "name": "Hornafjordur Airport",
    "city": "Hornafjordur",
    "country": "IS",
    "lat": 64.2956008911,
    "lon": -15.2271995544
  },
  "FLI": {
    "name": "Holt Airport",
    "city": "Flateyri",
    "country": "IS",
    "lat": 66.0141804294,
    "lon": -23.4416913986
  },
  "HZK": {
    "name": "Husavik Airport",
    "city": "Husavik",
    "country": "IS",
    "lat": 65.9523010254,
    "lon": -17.4260005951
  },
  "HVM": {
    "name": "Krokstadarmelar Airport",
    "city": "Hvammstangi",
    "country": "IS",
    "lat": 65.2664031982,
    "lon": -20.8469009399
  },
  "HLO": {
    "name": "Ingjaldssandur Airport",
    "city": "Onundarfjordur",
    "country": "IS",
    "lat": 66.0500030518,
    "lon": -23.696100235
  },
  "IFJ": {
    "name": "Isafjordur Airport",
    "city": "Isafjordur",
    "country": "IS",
    "lat": 66.0580978394,
    "lon": -23.1352996826
  },
  "KEF": {
    "name": "Keflavik International Airport",
    "city": "Reykjavik",
    "country": "IS",
    "lat": 63.9850006104,
    "lon": -22.6056003571
  },
  "OPA": {
    "name": "Kopasker Airport",
    "city": "Kopasker",
    "country": "IS",
    "lat": 66.310798645,
    "lon": -16.4666996002
  },
  "SAK": {
    "name": "Saudarkrokur Airport",
    "city": "Saudarkrokur",
    "country": "IS",
    "lat": 65.7316970825,
    "lon": -19.5727996826
  },
  "NOR": {
    "name": "Nordfjordur Airport",
    "city": "Nordfjordur",
    "country": "IS",
    "lat": 65.1318969727,
    "lon": -13.7463998795
  },
  "OFJ": {
    "name": "Olafsfjordur Airport",
    "city": "Olafsfjordur",
    "country": "IS",
    "lat": 66.0832977295,
    "lon": -18.6667003632
  },
  "PFJ": {
    "name": "Patreksfjordur Airport",
    "city": "Patreksfjordur",
    "country": "IS",
    "lat": 65.5558013916,
    "lon": -23.9650001526
  },
  "RHA": {
    "name": "Reykholar Airport",
    "city": "Reykholar",
    "country": "IS",
    "lat": 65.4526290894,
    "lon": -22.2061157227
  },
  "OLI": {
    "name": "Rif Airport",
    "city": "Rif",
    "country": "IS",
    "lat": 64.9113998413,
    "lon": -23.8230991364
  },
  "RFN": {
    "name": "Raufarhofn Airport",
    "city": "Raufarhofn",
    "country": "IS",
    "lat": 66.4064025879,
    "lon": -15.918299675
  },
  "RKV": {
    "name": "Reykjavik Airport",
    "city": "Reykjavik",
    "country": "IS",
    "lat": 64.1299972534,
    "lon": -21.9405994415
  },
  "MVA": {
    "name": "Reykjahlid Airport",
    "city": "Myvatn",
    "country": "IS",
    "lat": 65.6557998657,
    "lon": -16.9181003571
  },
  "SIJ": {
    "name": "Siglufjordur Airport",
    "city": "Siglufjordur",
    "country": "IS",
    "lat": 66.1333007813,
    "lon": -18.9167003632
  },
  "SYK": {
    "name": "Stykkisholmur Airport",
    "city": "Stykkisholmur",
    "country": "IS",
    "lat": 65.0580978394,
    "lon": -22.7942008972
  },
  "TEY": {
    "name": "Tingeyri Airport",
    "city": "Tingeyri",
    "country": "IS",
    "lat": 65.870300293,
    "lon": -23.5599994659
  },
  "THO": {
    "name": "Thorshofn Airport",
    "city": "Thorshofn",
    "country": "IS",
    "lat": 66.21849823,
    "lon": -15.3355998993
  },
  "VEY": {
    "name": "Vestmannaeyjar Airport",
    "city": "Vestmannaeyjar",
    "country": "IS",
    "lat": 63.4243011475,
    "lon": -20.2789001465
  },
  "VPN": {
    "name": "Vopnafjordur Airport",
    "city": "Vopnafjordur",
    "country": "IS",
    "lat": 65.7205963135,
    "lon": -14.8506002426
  },
  "ANR": {
    "name": "Antwerp International Airport (Deurne)",
    "city": "Antwerp",
    "country": "BE",
    "lat": 51.1893997192,
    "lon": 4.4602799416
  },
  "BRU": {
    "name": "Brussels Airport",
    "city": "Brussels",
    "country": "BE",
    "lat": 50.9014015198,
    "lon": 4.4844398499
  },
  "CRL": {
    "name": "Brussels South Charleroi Airport",
    "city": "Brussels",
    "country": "BE",
    "lat": 50.4592018127,
    "lon": 4.4538202286
  },
  "KJK": {
    "name": "Wevelgem Airport",
    "city": "Wevelgem",
    "country": "BE",
    "lat": 50.817199707,
    "lon": 3.2047200203
  },
  "LGG": {
    "name": "Liege Airport",
    "city": "Liege",
    "country": "BE",
    "lat": 50.6374015808,
    "lon": 5.4432201385
  },
  "QNM": {
    "name": "Suarlee Airport",
    "city": "Namur",
    "country": "BE",
    "lat": 50.4879989624,
    "lon": 4.7689199448
  },
  "OST": {
    "name": "Ostend-Bruges International Airport",
    "city": "Ostend",
    "country": "BE",
    "lat": 51.1988983154,
    "lon": 2.8622200489
  },
  "QHA": {
    "name": "Hasselt Airport",
    "city": "Hasselt",
    "country": "BE",
    "lat": 50.9700012207,
    "lon": 5.3750700951
  },
  "OBL": {
    "name": "Oostmalle Air Base",
    "city": "Zoersel",
    "country": "BE",
    "lat": 51.2647018433,
    "lon": 4.7533302307
  },
  "AOC": {
    "name": "Altenburg-Nobitz Airport",
    "city": "Altenburg",
    "country": "DE",
    "lat": 50.9819450378,
    "lon": 12.5063886642
  },
  "HDF": {
    "name": "Heringsdorf Airport",
    "city": "Heringsdorf",
    "country": "DE",
    "lat": 53.8787002563,
    "lon": 14.152299881
  },
  "ZHZ": {
    "name": "Halle-Oppin Airport",
    "city": "Oppin",
    "country": "DE",
    "lat": 51.5522232056,
    "lon": 12.0538892746
  },
  "IES": {
    "name": "Riesa-Gohlis Airport",
    "city": "Riesa",
    "country": "DE",
    "lat": 51.2936096191,
    "lon": 13.3561105728
  },
  "REB": {
    "name": "Rechlin-Larz Airport",
    "city": "Larz",
    "country": "DE",
    "lat": 53.306388855,
    "lon": 12.7522220612
  },
  "CSO": {
    "name": "Cochstedt Airport",
    "city": "Magdeburg",
    "country": "DE",
    "lat": 51.8563995361,
    "lon": 11.42029953
  },
  "BBH": {
    "name": "Barth Airport",
    "city": "",
    "country": "DE",
    "lat": 54.3375015259,
    "lon": 12.6997003555
  },
  "ZMG": {
    "name": "Magdeburg Airport",
    "city": "Magdeburg",
    "country": "DE",
    "lat": 52.0736122131,
    "lon": 11.6263885498
  },
  "CBU": {
    "name": "Cottbus-Drewitz Airport",
    "city": "Cottbus",
    "country": "DE",
    "lat": 51.8894424438,
    "lon": 14.5319442749
  },
  "GTI": {
    "name": "Rugen Airport",
    "city": "Rugen",
    "country": "DE",
    "lat": 54.3833312988,
    "lon": 13.3255558014
  },
  "KOQ": {
    "name": "Kothen Airport",
    "city": "Kothen",
    "country": "DE",
    "lat": 51.7211112976,
    "lon": 11.9527778625
  },
  "PEF": {
    "name": "Peenemunde Airport",
    "city": "Peenemunde",
    "country": "DE",
    "lat": 54.1577796936,
    "lon": 13.7744436264
  },
  "BER": {
    "name": "Berlin Brandenburg Airport",
    "city": "Berlin",
    "country": "DE",
    "lat": 52.366667,
    "lon": 13.503333
  },
  "DRS": {
    "name": "Dresden Airport",
    "city": "Dresden",
    "country": "DE",
    "lat": 51.1328010559,
    "lon": 13.76720047
  },
  "ERF": {
    "name": "Erfurt Airport",
    "city": "Erfurt",
    "country": "DE",
    "lat": 50.979801178,
    "lon": 10.9581003189
  },
  "FRA": {
    "name": "Frankfurt am Main International Airport",
    "city": "Frankfurt-am-Main",
    "country": "DE",
    "lat": 50.0264015198,
    "lon": 8.543129921
  },
  "FMO": {
    "name": "Munster Osnabruck Airport",
    "city": "Munster",
    "country": "DE",
    "lat": 52.134601593,
    "lon": 7.6848301888
  },
  "HAM": {
    "name": "Hamburg Airport",
    "city": "Hamburg",
    "country": "DE",
    "lat": 53.6304016113,
    "lon": 9.9882297516
  },
  "THF": {
    "name": "Berlin Tempelhof Airport",
    "city": "Berlin",
    "country": "DE",
    "lat": 52.473611,
    "lon": 13.401667
  },
  "CGN": {
    "name": "Cologne Bonn Airport",
    "city": "Cologne",
    "country": "DE",
    "lat": 50.8658981323,
    "lon": 7.1427397728
  },
  "DUS": {
    "name": "Dusseldorf International Airport",
    "city": "Dusseldorf",
    "country": "DE",
    "lat": 51.2895011902,
    "lon": 6.7667798996
  },
  "MUC": {
    "name": "Munich International Airport",
    "city": "Munich",
    "country": "DE",
    "lat": 48.3538017273,
    "lon": 11.7861003876
  },
  "NUE": {
    "name": "Nuremberg Airport",
    "city": "Nuremberg",
    "country": "DE",
    "lat": 49.4986991882,
    "lon": 11.0669002533
  },
  "LEJ": {
    "name": "Leipzig Halle Airport",
    "city": "Leipzig",
    "country": "DE",
    "lat": 51.4323997498,
    "lon": 12.2416000366
  },
  "SCN": {
    "name": "Saarbrucken Airport",
    "city": "Saarbrucken",
    "country": "DE",
    "lat": 49.2145996094,
    "lon": 7.1095099449
  },
  "STR": {
    "name": "Stuttgart Airport",
    "city": "Stuttgart",
    "country": "DE",
    "lat": 48.6898994446,
    "lon": 9.2219600677
  },
  "TXL": {
    "name": "Berlin-Tegel International Airport",
    "city": "Berlin",
    "country": "DE",
    "lat": 52.5597000122,
    "lon": 13.2876996994
  },
  "HAJ": {
    "name": "Hannover Airport",
    "city": "Hannover",
    "country": "DE",
    "lat": 52.461101532,
    "lon": 9.6850795746
  },
  "BRE": {
    "name": "Bremen Airport",
    "city": "Bremen",
    "country": "DE",
    "lat": 53.0475006104,
    "lon": 8.7866697311
  },
  "QEF": {
    "name": "Frankfurt-Egelsbach Airport",
    "city": "Egelsbach",
    "country": "DE",
    "lat": 49.9599990845,
    "lon": 8.6458330154
  },
  "HHN": {
    "name": "Frankfurt-Hahn Airport",
    "city": "Hahn",
    "country": "DE",
    "lat": 49.9486999512,
    "lon": 7.2638897896
  },
  "MHG": {
    "name": "Mannheim-City Airport",
    "city": "Mannheim",
    "country": "DE",
    "lat": 49.4730567932,
    "lon": 8.514166832
  },
  "QMZ": {
    "name": "Mainz-Finthen Airport",
    "city": "Mainz",
    "country": "DE",
    "lat": 49.9674987793,
    "lon": 8.1472215652
  },
  "EIB": {
    "name": "Eisenach-Kindel Airport",
    "city": "Eisenach",
    "country": "DE",
    "lat": 50.9927787781,
    "lon": 10.4727783203
  },
  "SGE": {
    "name": "Siegerland Airport",
    "city": "",
    "country": "DE",
    "lat": 50.707698822,
    "lon": 8.0829696655
  },
  "KZG": {
    "name": "Kitzingen Airport",
    "city": "Kitzingen",
    "country": "DE",
    "lat": 49.7416313,
    "lon": 10.1988562
  },
  "XFW": {
    "name": "Hamburg-Finkenwerder Airport",
    "city": "Hamburg",
    "country": "DE",
    "lat": 53.5352783203,
    "lon": 9.8355560303
  },
  "KEL": {
    "name": "Kiel-Holtenau Airport",
    "city": "Kiel",
    "country": "DE",
    "lat": 54.3794441223,
    "lon": 10.145277977
  },
  "LBC": {
    "name": "Lubeck Blankensee Airport",
    "city": "Lubeck",
    "country": "DE",
    "lat": 53.8054008484,
    "lon": 10.7192001343
  },
  "EUM": {
    "name": "Neumunster Airport",
    "city": "Neumunster",
    "country": "DE",
    "lat": 54.0794448853,
    "lon": 9.9413890839
  },
  "FMM": {
    "name": "Memmingen Allgau Airport",
    "city": "Memmingen",
    "country": "DE",
    "lat": 47.9888000488,
    "lon": 10.2395000458
  },
  "AAH": {
    "name": "Aachen-Merzbruck Airport",
    "city": "Aachen",
    "country": "DE",
    "lat": 50.8230552673,
    "lon": 6.1863889694
  },
  "BNJ": {
    "name": "Bonn-Hangelar Airport",
    "city": "Bonn",
    "country": "DE",
    "lat": 50.7688903809,
    "lon": 7.1633329391
  },
  "ZCA": {
    "name": "Arnsberg-Menden Airport",
    "city": "Neheim-Husten",
    "country": "DE",
    "lat": 51.4838905334,
    "lon": 7.8983330727
  },
  "ESS": {
    "name": "Essen Mulheim Airport",
    "city": "",
    "country": "DE",
    "lat": 51.4023017883,
    "lon": 6.9373297691
  },
  "BFE": {
    "name": "Bielefeld Airport",
    "city": "Bielefeld",
    "country": "DE",
    "lat": 51.9647216797,
    "lon": 8.5444440842
  },
  "ZOJ": {
    "name": "Marl-Loemuhle Airport",
    "city": "Marl",
    "country": "DE",
    "lat": 51.6472015381,
    "lon": 7.1633300781
  },
  "MGL": {
    "name": "Monchengladbach Airport",
    "city": "Monchengladbach",
    "country": "DE",
    "lat": 51.2302780151,
    "lon": 6.5044441223
  },
  "PAD": {
    "name": "Paderborn Lippstadt Airport",
    "city": "Paderborn",
    "country": "DE",
    "lat": 51.6141014099,
    "lon": 8.6163196564
  },
  "NRN": {
    "name": "Niederrhein Airport",
    "city": "Weeze",
    "country": "DE",
    "lat": 51.6024017334,
    "lon": 6.1421699524
  },
  "DTM": {
    "name": "Dortmund Airport",
    "city": "Dortmund",
    "country": "DE",
    "lat": 51.5182991028,
    "lon": 7.6122398377
  },
  "AGB": {
    "name": "Augsburg Airport",
    "city": "Augsburg",
    "country": "DE",
    "lat": 48.42527771,
    "lon": 10.9316673279
  },
  "OBF": {
    "name": "Oberpfaffenhofen Airport",
    "city": "",
    "country": "DE",
    "lat": 48.081401825,
    "lon": 11.2831001282
  },
  "RBM": {
    "name": "Straubing Airport",
    "city": "Straubing",
    "country": "DE",
    "lat": 48.9008331299,
    "lon": 12.516667366
  },
  "FDH": {
    "name": "Friedrichshafen Airport",
    "city": "Friedrichshafen",
    "country": "DE",
    "lat": 47.6712989807,
    "lon": 9.5114898682
  },
  "FRF": {
    "name": "Oschersleben Airport",
    "city": "Oschersleben",
    "country": "DE",
    "lat": 52.0380554199,
    "lon": 11.2055559158
  },
  "SZW": {
    "name": "Schwerin Parchim Airport",
    "city": "",
    "country": "DE",
    "lat": 53.4269981384,
    "lon": 11.7833995819
  },
  "QCB": {
    "name": "Bamberg-Breitenau Airfield",
    "city": "Bamberg",
    "country": "DE",
    "lat": 49.92055,
    "lon": 10.9144888889
  },
  "BYU": {
    "name": "Bayreuth Airport",
    "city": "Bayreuth",
    "country": "DE",
    "lat": 49.9850006104,
    "lon": 11.6400003433
  },
  "URD": {
    "name": "Burg Feuerstein Airport",
    "city": "Ebermannstadt",
    "country": "DE",
    "lat": 49.7941665649,
    "lon": 11.1336107254
  },
  "QOB": {
    "name": "Ansbach-Petersdorf Airport",
    "city": "Ansbach",
    "country": "DE",
    "lat": 49.3611106873,
    "lon": 10.6694440842
  },
  "HOQ": {
    "name": "Hof-Plauen Airport",
    "city": "Hof",
    "country": "DE",
    "lat": 50.2886123657,
    "lon": 11.8563890457
  },
  "BBJ": {
    "name": "Bitburg Airport",
    "city": "Bitburg",
    "country": "DE",
    "lat": 49.9452781677,
    "lon": 6.5650000572
  },
  "ZNV": {
    "name": "Koblenz-Winningen Airport",
    "city": "Koblenz",
    "country": "DE",
    "lat": 50.3255577087,
    "lon": 7.5286111832
  },
  "ZQF": {
    "name": "Trier-Fohren Airport",
    "city": "Trier",
    "country": "DE",
    "lat": 49.8638877869,
    "lon": 6.7874999046
  },
  "ZQC": {
    "name": "Speyer Airport",
    "city": "Speyer",
    "country": "DE",
    "lat": 49.3047218323,
    "lon": 8.4513893127
  },
  "ZQW": {
    "name": "Zweibrucken Airport",
    "city": "Zweibrucken",
    "country": "DE",
    "lat": 49.209400177,
    "lon": 7.4005599022
  },
  "FKB": {
    "name": "Karlsruhe Baden-Baden Airport",
    "city": "Baden-Baden",
    "country": "DE",
    "lat": 48.7793998718,
    "lon": 8.0804996491
  },
  "ZQL": {
    "name": "Donaueschingen-Villingen Airport",
    "city": "Donaueschingen",
    "country": "DE",
    "lat": 47.9733314514,
    "lon": 8.5222215653
  },
  "LHA": {
    "name": "Lahr Airport",
    "city": "",
    "country": "DE",
    "lat": 48.3693008423,
    "lon": 7.8277201653
  },
  "BWE": {
    "name": "Braunschweig Wolfsburg Airport",
    "city": "",
    "country": "DE",
    "lat": 52.3191986084,
    "lon": 10.5560998917
  },
  "KSF": {
    "name": "Kassel-Calden Airport",
    "city": "Kassel",
    "country": "DE",
    "lat": 51.4083328247,
    "lon": 9.3774995804
  },
  "BRV": {
    "name": "Bremerhaven Airport",
    "city": "Bremerhaven",
    "country": "DE",
    "lat": 53.506942749,
    "lon": 8.5727777481
  },
  "XLW": {
    "name": "Lemwerder Airport",
    "city": "Lemwerder",
    "country": "DE",
    "lat": 53.1446990967,
    "lon": 8.6244401932
  },
  "EME": {
    "name": "Emden Airport",
    "city": "Emden",
    "country": "DE",
    "lat": 53.3911094666,
    "lon": 7.2274999619
  },
  "AGE": {
    "name": "Wangerooge Airport",
    "city": "Wangerooge",
    "country": "DE",
    "lat": 53.7827796936,
    "lon": 7.9138889313
  },
  "WVN": {
    "name": "Wilhelmshaven-Mariensiel Airport",
    "city": "Wilhelmshaven",
    "country": "DE",
    "lat": 53.5022201538,
    "lon": 8.0522222519
  },
  "JUI": {
    "name": "Juist Airport",
    "city": "Juist",
    "country": "DE",
    "lat": 53.6811103821,
    "lon": 7.0558328629
  },
  "LGO": {
    "name": "Langeoog Airport",
    "city": "Langeoog",
    "country": "DE",
    "lat": 53.7425003052,
    "lon": 7.4977779388
  },
  "ZOW": {
    "name": "Nordhorn-Lingen Airport",
    "city": "Klausheide",
    "country": "DE",
    "lat": 52.4575004578,
    "lon": 7.1822218895
  },
  "BMK": {
    "name": "Borkum Airport",
    "city": "Borkum",
    "country": "DE",
    "lat": 53.5963897705,
    "lon": 6.7091670036
  },
  "NOD": {
    "name": "Norden-Norddeich Airport",
    "city": "Norddeich",
    "country": "DE",
    "lat": 53.6330566406,
    "lon": 7.1902780533
  },
  "VAC": {
    "name": "Varrelbusch Airport",
    "city": "Cloppenburg",
    "country": "DE",
    "lat": 52.9083328247,
    "lon": 8.040555954
  },
  "NRD": {
    "name": "Norderney Airport",
    "city": "Norderney",
    "country": "DE",
    "lat": 53.706943512,
    "lon": 7.2300000191
  },
  "BMR": {
    "name": "Baltrum Airport",
    "city": "Baltrum",
    "country": "DE",
    "lat": 53.7247238159,
    "lon": 7.3733329773
  },
  "HEI": {
    "name": "Heide-Busum Airport",
    "city": "Busum",
    "country": "DE",
    "lat": 54.1533317566,
    "lon": 8.9016666412
  },
  "FLF": {
    "name": "Flensburg-Schaeferhaus Airport",
    "city": "Flensburg",
    "country": "DE",
    "lat": 54.7733345032,
    "lon": 9.3788890839
  },
  "HGL": {
    "name": "Helgoland-Dune Airport",
    "city": "Helgoland",
    "country": "DE",
    "lat": 54.1852798462,
    "lon": 7.9158329964
  },
  "QHU": {
    "name": "Husum-Schwesing Airport",
    "city": "Husum",
    "country": "DE",
    "lat": 54.5099983215,
    "lon": 9.1383333206
  },
  "PSH": {
    "name": "St. Peter-Ording Airport",
    "city": "Sankt Peter-Ording",
    "country": "DE",
    "lat": 54.3088874817,
    "lon": 8.6869440079
  },
  "GWT": {
    "name": "Westerland Sylt Airport",
    "city": "Westerland",
    "country": "DE",
    "lat": 54.9132003784,
    "lon": 8.340470314
  },
  "OHR": {
    "name": "Wyk auf Fohr Airport",
    "city": "Wyk auf Fohr",
    "country": "DE",
    "lat": 54.6844444275,
    "lon": 8.5283327103
  },
  "KDL": {
    "name": "Kardla Airport",
    "city": "Kardla",
    "country": "EE",
    "lat": 58.9907989502,
    "lon": 22.8306999207
  },
  "URE": {
    "name": "Kuressaare Airport",
    "city": "Kuressaare",
    "country": "EE",
    "lat": 58.2299003601,
    "lon": 22.5095005035
  },
  "EPU": {
    "name": "Parnu Airport",
    "city": "Parnu",
    "country": "EE",
    "lat": 58.4189987183,
    "lon": 24.4727993011
  },
  "TLL": {
    "name": "Tallinn Airport",
    "city": "Tallinn",
    "country": "EE",
    "lat": 59.4132995605,
    "lon": 24.8327999115
  },
  "TAY": {
    "name": "Tartu Airport",
    "city": "Tartu",
    "country": "EE",
    "lat": 58.3074989319,
    "lon": 26.6903991699
  },
  "ENF": {
    "name": "Enontekio Airport",
    "city": "Enontekio",
    "country": "FI",
    "lat": 68.3626022339,
    "lon": 23.4242992401
  },
  "QVE": {
    "name": "Forssa Airport",
    "city": "Forssa",
    "country": "FI",
    "lat": 60.8018989563,
    "lon": 23.6455993652
  },
  "KEV": {
    "name": "Halli Airport",
    "city": "Halli / Kuorevesi",
    "country": "FI",
    "lat": 61.8559989929,
    "lon": 24.7866001129
  },
  "HEM": {
    "name": "Helsinki Malmi Airport",
    "city": "Helsinki",
    "country": "FI",
    "lat": 60.2546005249,
    "lon": 25.0428009033
  },
  "HEL": {
    "name": "Helsinki Vantaa Airport",
    "city": "Helsinki",
    "country": "FI",
    "lat": 60.317199707,
    "lon": 24.963300705
  },
  "HYV": {
    "name": "Hyvinkaa Airport",
    "city": "",
    "country": "FI",
    "lat": 60.6543998718,
    "lon": 24.8810997009
  },
  "KTQ": {
    "name": "Kitee Airport",
    "city": "",
    "country": "FI",
    "lat": 62.1660995483,
    "lon": 30.073600769
  },
  "IVL": {
    "name": "Ivalo Airport",
    "city": "Ivalo",
    "country": "FI",
    "lat": 68.6072998047,
    "lon": 27.4053001404
  },
  "JOE": {
    "name": "Joensuu Airport",
    "city": "Joensuu / Liperi",
    "country": "FI",
    "lat": 62.6628990173,
    "lon": 29.6075000763
  },
  "JYV": {
    "name": "Jyvaskyla Airport",
    "city": "Jyvaskylan Maalaiskunta",
    "country": "FI",
    "lat": 62.3995018005,
    "lon": 25.6783008575
  },
  "KAU": {
    "name": "Kauhava Airport",
    "city": "Kauhava",
    "country": "FI",
    "lat": 63.1271018982,
    "lon": 23.051399231
  },
  "KEM": {
    "name": "Kemi-Tornio Airport",
    "city": "Kemi / Tornio",
    "country": "FI",
    "lat": 65.7787017822,
    "lon": 24.5820999146
  },
  "KAJ": {
    "name": "Kajaani Airport",
    "city": "Kajaani",
    "country": "FI",
    "lat": 64.2854995728,
    "lon": 27.6923999786
  },
  "KHJ": {
    "name": "Kauhajoki Airport",
    "city": "",
    "country": "FI",
    "lat": 62.4625015259,
    "lon": 22.3931007385
  },
  "KOK": {
    "name": "Kruunupyy Airport",
    "city": "Kokkola / Kruunupyy",
    "country": "FI",
    "lat": 63.7211990356,
    "lon": 23.1431007385
  },
  "KAO": {
    "name": "Kuusamo Airport",
    "city": "Kuusamo",
    "country": "FI",
    "lat": 65.9876022339,
    "lon": 29.2394008636
  },
  "KTT": {
    "name": "Kittila Airport",
    "city": "Kittila",
    "country": "FI",
    "lat": 67.7009963989,
    "lon": 24.8467998505
  },
  "KUO": {
    "name": "Kuopio Airport",
    "city": "Kuopio / Siilinjarvi",
    "country": "FI",
    "lat": 63.0070991516,
    "lon": 27.7978000641
  },
  "QLF": {
    "name": "Lahti Vesivehmaa Airport",
    "city": "",
    "country": "FI",
    "lat": 61.1441993713,
    "lon": 25.6935005188
  },
  "LPP": {
    "name": "Lappeenranta Airport",
    "city": "Lappeenranta",
    "country": "FI",
    "lat": 61.0446014404,
    "lon": 28.1443996429
  },
  "MHQ": {
    "name": "Mariehamn Airport",
    "city": "",
    "country": "FI",
    "lat": 60.1222000122,
    "lon": 19.8981990814
  },
  "MIK": {
    "name": "Mikkeli Airport",
    "city": "Mikkeli",
    "country": "FI",
    "lat": 61.6865997314,
    "lon": 27.2017993927
  },
  "OUL": {
    "name": "Oulu Airport",
    "city": "Oulu / Oulunsalo",
    "country": "FI",
    "lat": 64.9300994873,
    "lon": 25.3546009064
  },
  "POR": {
    "name": "Pori Airport",
    "city": "Pori",
    "country": "FI",
    "lat": 61.4617004395,
    "lon": 21.7999992371
  },
  "RVN": {
    "name": "Rovaniemi Airport",
    "city": "Rovaniemi",
    "country": "FI",
    "lat": 66.5647964478,
    "lon": 25.8304004669
  },
  "SVL": {
    "name": "Savonlinna Airport",
    "city": "Savonlinna",
    "country": "FI",
    "lat": 61.9430999756,
    "lon": 28.9451007843
  },
  "SJY": {
    "name": "Seinajoki Airport",
    "city": "Seinajoki / Ilmajoki",
    "country": "FI",
    "lat": 62.6921005249,
    "lon": 22.8323001862
  },
  "SOT": {
    "name": "Sodankyla Airport",
    "city": "Sodankyla",
    "country": "FI",
    "lat": 67.3949966431,
    "lon": 26.6191005707
  },
  "TMP": {
    "name": "Tampere-Pirkkala Airport",
    "city": "Tampere / Pirkkala",
    "country": "FI",
    "lat": 61.414100647,
    "lon": 23.6044006348
  },
  "TKU": {
    "name": "Turku Airport",
    "city": "Turku",
    "country": "FI",
    "lat": 60.5140991211,
    "lon": 22.2628002167
  },
  "UTI": {
    "name": "Utti Air Base",
    "city": "Utti / Valkeala",
    "country": "FI",
    "lat": 60.8964004517,
    "lon": 26.9384002686
  },
  "VAA": {
    "name": "Vaasa Airport",
    "city": "Vaasa",
    "country": "FI",
    "lat": 63.0507011414,
    "lon": 21.7621994019
  },
  "VRK": {
    "name": "Varkaus Airport",
    "city": "Varkaus / Joroinen",
    "country": "FI",
    "lat": 62.1711006165,
    "lon": 27.8686008453
  },
  "YLI": {
    "name": "Ylivieska Airport",
    "city": "",
    "country": "FI",
    "lat": 64.0605010986,
    "lon": 24.7159996033
  },
  "LHB": {
    "name": "Bruntingthorpe Airport",
    "city": "Bruntingthorpe",
    "country": "GB",
    "lat": 52.492971862,
    "lon": -1.1250901222
  },
  "BFS": {
    "name": "Belfast International Airport",
    "city": "Belfast",
    "country": "GB",
    "lat": 54.6575012207,
    "lon": -6.2158298492
  },
  "ENK": {
    "name": "St Angelo Airport",
    "city": "Enniskillen",
    "country": "GB",
    "lat": 54.3988990784,
    "lon": -7.6516699791
  },
  "BHD": {
    "name": "George Best Belfast City Airport",
    "city": "Belfast",
    "country": "GB",
    "lat": 54.6180992126,
    "lon": -5.8724999428
  },
  "LDY": {
    "name": "City of Derry Airport",
    "city": "Derry",
    "country": "GB",
    "lat": 55.0428009033,
    "lon": -7.1611099243
  },
  "BHX": {
    "name": "Birmingham International Airport",
    "city": "Birmingham",
    "country": "GB",
    "lat": 52.4538993835,
    "lon": -1.7480299473
  },
  "CVT": {
    "name": "Coventry Airport",
    "city": "Coventry",
    "country": "GB",
    "lat": 52.3697013855,
    "lon": -1.4797199965
  },
  "GLO": {
    "name": "Gloucestershire Airport",
    "city": "Staverton",
    "country": "GB",
    "lat": 51.8941993713,
    "lon": -2.1672201157
  },
  "ORM": {
    "name": "Sywell Aerodrome",
    "city": "Northampton",
    "country": "GB",
    "lat": 52.3053016663,
    "lon": -0.7930560112
  },
  "NQT": {
    "name": "Nottingham Airport",
    "city": "Nottingham",
    "country": "GB",
    "lat": 52.9199981689,
    "lon": -1.0791699886
  },
  "GBA": {
    "name": "Kemble Airport",
    "city": "Kemble",
    "country": "GB",
    "lat": 51.6680984497,
    "lon": -2.0569400787
  },
  "MAN": {
    "name": "Manchester Airport",
    "city": "Manchester",
    "country": "GB",
    "lat": 53.3536987305,
    "lon": -2.2749500275
  },
  "DSA": {
    "name": "Robin Hood Doncaster Sheffield Airport",
    "city": "Doncaster",
    "country": "GB",
    "lat": 53.4805378105,
    "lon": -1.0106563568
  },
  "UPV": {
    "name": "Upavon Aerodrome",
    "city": "Upavon",
    "country": "GB",
    "lat": 51.2862014771,
    "lon": -1.7820199728
  },
  "LYE": {
    "name": "RAF Lyneham",
    "city": "Lyneham",
    "country": "GB",
    "lat": 51.5051002502,
    "lon": -1.9934300184
  },
  "DGX": {
    "name": "MOD St. Athan",
    "city": "St. Athan",
    "country": "GB",
    "lat": 51.404800415,
    "lon": -3.4357500076
  },
  "YEO": {
    "name": "RNAS Yeovilton",
    "city": "Yeovil",
    "country": "GB",
    "lat": 51.0093994141,
    "lon": -2.6388199329
  },
  "CAL": {
    "name": "Campbeltown Airport",
    "city": "Campbeltown",
    "country": "GB",
    "lat": 55.4371986389,
    "lon": -5.6863899231
  },
  "EOI": {
    "name": "Eday Airport",
    "city": "Eday",
    "country": "GB",
    "lat": 59.1906013489,
    "lon": -2.7722198963
  },
  "FIE": {
    "name": "Fair Isle Airport",
    "city": "Fair Isle",
    "country": "GB",
    "lat": 59.5358009338,
    "lon": -1.6280599833
  },
  "WHS": {
    "name": "Whalsay Airport",
    "city": "Whalsay",
    "country": "GB",
    "lat": 60.3774986267,
    "lon": -0.925556004
  },
  "COL": {
    "name": "Coll Airport",
    "city": "Coll Island",
    "country": "GB",
    "lat": 56.6018981934,
    "lon": -6.6177802086
  },
  "NRL": {
    "name": "North Ronaldsay Airport",
    "city": "North Ronaldsay",
    "country": "GB",
    "lat": 59.3675003052,
    "lon": -2.4344398975
  },
  "OBN": {
    "name": "Oban Airport",
    "city": "North Connel",
    "country": "GB",
    "lat": 56.4635009766,
    "lon": -5.3996701241
  },
  "PPW": {
    "name": "Papa Westray Airport",
    "city": "Papa Westray",
    "country": "GB",
    "lat": 59.3516998291,
    "lon": -2.9002799988
  },
  "SOY": {
    "name": "Stronsay Airport",
    "city": "Stronsay",
    "country": "GB",
    "lat": 59.1553001404,
    "lon": -2.6413900852
  },
  "NDY": {
    "name": "Sanday Airport",
    "city": "Sanday",
    "country": "GB",
    "lat": 59.2503013611,
    "lon": -2.5766699314
  },
  "LWK": {
    "name": "Lerwick / Tingwall Airport",
    "city": "Lerwick",
    "country": "GB",
    "lat": 60.192199707,
    "lon": -1.2436100245
  },
  "WRY": {
    "name": "Westray Airport",
    "city": "Westray",
    "country": "GB",
    "lat": 59.3502998352,
    "lon": -2.9500000477
  },
  "CSA": {
    "name": "Colonsay Airstrip",
    "city": "Colonsay",
    "country": "GB",
    "lat": 56.0574989319,
    "lon": -6.243060112
  },
  "HAW": {
    "name": "Haverfordwest Airport",
    "city": "Haverfordwest",
    "country": "GB",
    "lat": 51.8330993652,
    "lon": -4.9611101151
  },
  "CWL": {
    "name": "Cardiff International Airport",
    "city": "Cardiff",
    "country": "GB",
    "lat": 51.3967018127,
    "lon": -3.3433299065
  },
  "SWS": {
    "name": "Swansea Airport",
    "city": "Swansea",
    "country": "GB",
    "lat": 51.6053009033,
    "lon": -4.0678300858
  },
  "BRS": {
    "name": "Bristol International Airport",
    "city": "Bristol",
    "country": "GB",
    "lat": 51.3827018738,
    "lon": -2.7190899849
  },
  "LPL": {
    "name": "Liverpool John Lennon Airport",
    "city": "Liverpool",
    "country": "GB",
    "lat": 53.3335990906,
    "lon": -2.8497200012
  },
  "LTN": {
    "name": "London Luton Airport",
    "city": "London",
    "country": "GB",
    "lat": 51.8746986389,
    "lon": -0.3683330119
  },
  "LEQ": {
    "name": "Land's End Airport",
    "city": "Land's End",
    "country": "GB",
    "lat": 50.1027984619,
    "lon": -5.6705598831
  },
  "PLH": {
    "name": "Plymouth City Airport",
    "city": "Plymouth",
    "country": "GB",
    "lat": 50.4227981567,
    "lon": -4.1058301926
  },
  "ISC": {
    "name": "St. Mary's Airport",
    "city": "St. Mary's",
    "country": "GB",
    "lat": 49.9132995605,
    "lon": -6.2916698456
  },
  "BOH": {
    "name": "Bournemouth Airport",
    "city": "Bournemouth",
    "country": "GB",
    "lat": 50.7799987793,
    "lon": -1.8424999714
  },
  "SOU": {
    "name": "Southampton Airport",
    "city": "Southampton",
    "country": "GB",
    "lat": 50.9502983093,
    "lon": -1.3567999601
  },
  "BBP": {
    "name": "Bembridge Airport",
    "city": "Bembridge",
    "country": "GB",
    "lat": 50.6781005859,
    "lon": -1.1094399691
  },
  "QLA": {
    "name": "Lasham Airport",
    "city": "Lasham",
    "country": "GB",
    "lat": 51.1871986389,
    "lon": -1.0334999561
  },
  "NQY": {
    "name": "Newquay Cornwall Airport",
    "city": "Newquay",
    "country": "GB",
    "lat": 50.4406013489,
    "lon": -4.9954099655
  },
  "QUG": {
    "name": "Chichester/Goodwood Airport",
    "city": "Chichester",
    "country": "GB",
    "lat": 50.8594017029,
    "lon": -0.7591670156
  },
  "ESH": {
    "name": "Shoreham Airport",
    "city": "Brighton",
    "country": "GB",
    "lat": 50.8356018066,
    "lon": -0.2972219884
  },
  "BQH": {
    "name": "London Biggin Hill Airport",
    "city": "London",
    "country": "GB",
    "lat": 51.3307991028,
    "lon": 0.0324999988
  },
  "LGW": {
    "name": "London Gatwick Airport",
    "city": "London",
    "country": "GB",
    "lat": 51.1481018066,
    "lon": -0.1902779937
  },
  "KRH": {
    "name": "Redhill Aerodrome",
    "city": "Redhill",
    "country": "GB",
    "lat": 51.2136001587,
    "lon": -0.1386110038
  },
  "LCY": {
    "name": "London City Airport",
    "city": "London",
    "country": "GB",
    "lat": 51.5052986145,
    "lon": 0.0552779995
  },
  "FAB": {
    "name": "Farnborough Airport",
    "city": "Farnborough",
    "country": "GB",
    "lat": 51.2757987976,
    "lon": -0.7763329744
  },
  "BBS": {
    "name": "Blackbushe Airport",
    "city": "Yateley",
    "country": "GB",
    "lat": 51.3238983154,
    "lon": -0.8475000262
  },
  "LHR": {
    "name": "London Heathrow Airport",
    "city": "London",
    "country": "GB",
    "lat": 51.4706001282,
    "lon": -0.4619410038
  },
  "SEN": {
    "name": "Southend Airport",
    "city": "Southend",
    "country": "GB",
    "lat": 51.5713996887,
    "lon": 0.695555985
  },
  "LYX": {
    "name": "Lydd Airport",
    "city": "Lydd",
    "country": "GB",
    "lat": 50.9561004639,
    "lon": 0.9391670227
  },
  "MSE": {
    "name": "Kent International Airport",
    "city": "Manston",
    "country": "GB",
    "lat": 51.3422012329,
    "lon": 1.3461099863
  },
  "CAX": {
    "name": "Carlisle Airport",
    "city": "Carlisle",
    "country": "GB",
    "lat": 54.9375,
    "lon": -2.8091700077
  },
  "BLK": {
    "name": "Blackpool International Airport",
    "city": "Blackpool",
    "country": "GB",
    "lat": 53.7717018127,
    "lon": -3.0286099911
  },
  "HUY": {
    "name": "Humberside Airport",
    "city": "Grimsby",
    "country": "GB",
    "lat": 53.5744018555,
    "lon": -0.3508329988
  },
  "BWF": {
    "name": "Barrow Walney Island Airport",
    "city": "Barrow-in-Furness",
    "country": "GB",
    "lat": 54.1311988831,
    "lon": -3.2636699677
  },
  "LBA": {
    "name": "Leeds Bradford Airport",
    "city": "Leeds",
    "country": "GB",
    "lat": 53.8658981323,
    "lon": -1.6605700254
  },
  "WRT": {
    "name": "Warton Airport",
    "city": "Warton",
    "country": "GB",
    "lat": 53.745098114,
    "lon": -2.8830599785
  },
  "CEG": {
    "name": "Hawarden Airport",
    "city": "Hawarden",
    "country": "GB",
    "lat": 53.1781005859,
    "lon": -2.9777801037
  },
  "NCL": {
    "name": "Newcastle Airport",
    "city": "Newcastle",
    "country": "GB",
    "lat": 55.0374984741,
    "lon": -1.6916699409
  },
  "MME": {
    "name": "Durham Tees Valley Airport",
    "city": "Durham",
    "country": "GB",
    "lat": 54.5092010498,
    "lon": -1.4294099808
  },
  "EMA": {
    "name": "East Midlands Airport",
    "city": "Nottingham",
    "country": "GB",
    "lat": 52.8311004639,
    "lon": -1.3280600309
  },
  "HLY": {
    "name": "Anglesey Airport",
    "city": "Angelsey",
    "country": "GB",
    "lat": 53.2481002808,
    "lon": -4.5353398323
  },
  "KOI": {
    "name": "Kirkwall Airport",
    "city": "Orkney Islands",
    "country": "GB",
    "lat": 58.9578018188,
    "lon": -2.9049999714
  },
  "LSI": {
    "name": "Sumburgh Airport",
    "city": "Lerwick",
    "country": "GB",
    "lat": 59.8788986206,
    "lon": -1.2955600023
  },
  "WIC": {
    "name": "Wick Airport",
    "city": "Wick",
    "country": "GB",
    "lat": 58.4589004517,
    "lon": -3.0930600166
  },
  "ABZ": {
    "name": "Aberdeen Dyce Airport",
    "city": "Aberdeen",
    "country": "GB",
    "lat": 57.2019004822,
    "lon": -2.1977798939
  },
  "INV": {
    "name": "Inverness Airport",
    "city": "Inverness",
    "country": "GB",
    "lat": 57.5424995422,
    "lon": -4.0475001335
  },
  "GLA": {
    "name": "Glasgow International Airport",
    "city": "Glasgow",
    "country": "GB",
    "lat": 55.8718986511,
    "lon": -4.4330601692
  },
  "EDI": {
    "name": "Edinburgh Airport",
    "city": "Edinburgh",
    "country": "GB",
    "lat": 55.9500007629,
    "lon": -3.3724999428
  },
  "ILY": {
    "name": "Islay Airport",
    "city": "Port Ellen",
    "country": "GB",
    "lat": 55.6819000244,
    "lon": -6.2566699982
  },
  "PIK": {
    "name": "Glasgow Prestwick Airport",
    "city": "Glasgow",
    "country": "GB",
    "lat": 55.5093994141,
    "lon": -4.5866699219
  },
  "BEB": {
    "name": "Benbecula Airport",
    "city": "Balivanich",
    "country": "GB",
    "lat": 57.481098175,
    "lon": -7.3627800941
  },
  "SCS": {
    "name": "Scatsta Airport",
    "city": "Shetland Islands",
    "country": "GB",
    "lat": 60.432800293,
    "lon": -1.296110034
  },
  "DND": {
    "name": "Dundee Airport",
    "city": "Dundee",
    "country": "GB",
    "lat": 56.4524993896,
    "lon": -3.0258300304
  },
  "SYY": {
    "name": "Stornoway Airport",
    "city": "Stornoway",
    "country": "GB",
    "lat": 58.2155990601,
    "lon": -6.3311100006
  },
  "BRR": {
    "name": "Barra Airport",
    "city": "Eoligarry",
    "country": "GB",
    "lat": 57.0228004456,
    "lon": -7.4430599213
  },
  "PSL": {
    "name": "Perth/Scone Airport",
    "city": "Perth",
    "country": "GB",
    "lat": 56.439201355,
    "lon": -3.3722200394
  },
  "TRE": {
    "name": "Tiree Airport",
    "city": "Balemartine",
    "country": "GB",
    "lat": 56.4991989136,
    "lon": -6.8691701889
  },
  "UNT": {
    "name": "Unst Airport",
    "city": "Shetland Islands",
    "country": "GB",
    "lat": 60.7472000122,
    "lon": -0.8538500071
  },
  "BOL": {
    "name": "Ballykelly Airport",
    "city": "Ballykelly",
    "country": "GB",
    "lat": 55.0602989197,
    "lon": -7.0202798843
  },
  "FSS": {
    "name": "RAF Kinloss",
    "city": "Kinloss",
    "country": "GB",
    "lat": 57.6493988037,
    "lon": -3.5606400967
  },
  "ADX": {
    "name": "RAF Leuchars",
    "city": "St. Andrews",
    "country": "GB",
    "lat": 56.3728981018,
    "lon": -2.8684399128
  },
  "LMO": {
    "name": "RAF Lossiemouth",
    "city": "Lossiemouth",
    "country": "GB",
    "lat": 57.7052001953,
    "lon": -3.3391699791
  },
  "CBG": {
    "name": "Cambridge Airport",
    "city": "Cambridge",
    "country": "GB",
    "lat": 52.2050018311,
    "lon": 0.174999997
  },
  "NWI": {
    "name": "Norwich International Airport",
    "city": "Norwich",
    "country": "GB",
    "lat": 52.6758003235,
    "lon": 1.2827800512
  },
  "STN": {
    "name": "London Stansted Airport",
    "city": "London",
    "country": "GB",
    "lat": 51.8849983215,
    "lon": 0.2349999994
  },
  "QFO": {
    "name": "Duxford Airport",
    "city": "Duxford",
    "country": "GB",
    "lat": 52.090801239,
    "lon": 0.1319440007
  },
  "HYC": {
    "name": "Wycombe Air Park",
    "city": "High Wycombe",
    "country": "GB",
    "lat": 51.6116981506,
    "lon": -0.8083329797
  },
  "EXT": {
    "name": "Exeter International Airport",
    "city": "Exeter",
    "country": "GB",
    "lat": 50.7344017029,
    "lon": -3.4138898849
  },
  "FZO": {
    "name": "Bristol Filton Airport",
    "city": "Bristol",
    "country": "GB",
    "lat": 51.5194015503,
    "lon": -2.5908300877
  },
  "OXF": {
    "name": "Oxford (Kidlington) Airport",
    "city": "Kidlington",
    "country": "GB",
    "lat": 51.8368988037,
    "lon": -1.3200000525
  },
  "RCS": {
    "name": "Rochester Airport",
    "city": "Rochester",
    "country": "GB",
    "lat": 51.3518981934,
    "lon": 0.5033329725
  },
  "BEX": {
    "name": "RAF Benson",
    "city": "Benson",
    "country": "GB",
    "lat": 51.6164016724,
    "lon": -1.0958299637
  },
  "LKZ": {
    "name": "RAF Lakenheath",
    "city": "Lakenheath",
    "country": "GB",
    "lat": 52.4093017578,
    "lon": 0.5609999895
  },
  "MHZ": {
    "name": "RAF Mildenhall",
    "city": "Mildenhall",
    "country": "GB",
    "lat": 52.3619003296,
    "lon": 0.4864059985
  },
  "QUY": {
    "name": "RAF Wyton",
    "city": "St. Ives",
    "country": "GB",
    "lat": 52.3572006226,
    "lon": -0.107832998
  },
  "FFD": {
    "name": "RAF Fairford",
    "city": "Fairford",
    "country": "GB",
    "lat": 51.6822013855,
    "lon": -1.7900300026
  },
  "BZZ": {
    "name": "RAF Brize Norton",
    "city": "Brize Norton",
    "country": "GB",
    "lat": 51.75,
    "lon": -1.5836199522
  },
  "ODH": {
    "name": "RAF Odiham",
    "city": "Odiham",
    "country": "GB",
    "lat": 51.2341003418,
    "lon": -0.9428250194
  },
  "WXF": {
    "name": "Wethersfield Airport",
    "city": "Wethersfield",
    "country": "GB",
    "lat": 51.9719009399,
    "lon": 0.5094439983
  },
  "NHT": {
    "name": "RAF Northolt",
    "city": "London",
    "country": "GB",
    "lat": 51.5530014038,
    "lon": -0.418166995
  },
  "QCY": {
    "name": "RAF Coningsby",
    "city": "Coningsby",
    "country": "GB",
    "lat": 53.0929985046,
    "lon": -0.1660140008
  },
  "BEQ": {
    "name": "RAF Honington",
    "city": "Thetford",
    "country": "GB",
    "lat": 52.3426017761,
    "lon": 0.7729390264
  },
  "OKH": {
    "name": "RAF Cottesmore",
    "city": "Cottesmore",
    "country": "GB",
    "lat": 52.7356987,
    "lon": -0.648769021
  },
  "SQZ": {
    "name": "RAF Scampton",
    "city": "Scampton",
    "country": "GB",
    "lat": 53.307800293,
    "lon": -0.5508329868
  },
  "HRT": {
    "name": "RAF Linton-On-Ouse",
    "city": "Linton-On-Ouse",
    "country": "GB",
    "lat": 54.0489006042,
    "lon": -1.2527500391
  },
  "WTN": {
    "name": "RAF Waddington",
    "city": "Waddington",
    "country": "GB",
    "lat": 53.1661987305,
    "lon": -0.5238109827
  },
  "KNF": {
    "name": "RAF Marham",
    "city": "Marham",
    "country": "GB",
    "lat": 52.648399353,
    "lon": 0.5506920218
  },
  "AMS": {
    "name": "Amsterdam Airport Schiphol",
    "city": "Amsterdam",
    "country": "NL",
    "lat": 52.3086013794,
    "lon": 4.7638897896
  },
  "MST": {
    "name": "Maastricht Aachen Airport",
    "city": "Maastricht",
    "country": "NL",
    "lat": 50.9117012024,
    "lon": 5.7701401711
  },
  "QAR": {
    "name": "Deelen Air Base",
    "city": "Arnhem",
    "country": "NL",
    "lat": 52.0606002808,
    "lon": 5.8730602264
  },
  "EIN": {
    "name": "Eindhoven Airport",
    "city": "Eindhoven",
    "country": "NL",
    "lat": 51.4500999451,
    "lon": 5.3745298386
  },
  "GRQ": {
    "name": "Eelde Airport",
    "city": "Groningen",
    "country": "NL",
    "lat": 53.1197013855,
    "lon": 6.5794401169
  },
  "GLZ": {
    "name": "Gilze Rijen Air Base",
    "city": "Breda",
    "country": "NL",
    "lat": 51.567401886,
    "lon": 4.9318299294
  },
  "DHR": {
    "name": "De Kooy Airport",
    "city": "Den Helder",
    "country": "NL",
    "lat": 52.9234008789,
    "lon": 4.7806200981
  },
  "LEY": {
    "name": "Lelystad Airport",
    "city": "Lelystad",
    "country": "NL",
    "lat": 52.4603004456,
    "lon": 5.5272197723
  },
  "LWR": {
    "name": "Leeuwarden Air Base",
    "city": "Leeuwarden",
    "country": "NL",
    "lat": 53.2285995483,
    "lon": 5.7605600357
  },
  "RTM": {
    "name": "Rotterdam Airport",
    "city": "Rotterdam",
    "country": "NL",
    "lat": 51.9569015503,
    "lon": 4.4372200966
  },
  "ENS": {
    "name": "Twenthe Airport",
    "city": "Enschede",
    "country": "NL",
    "lat": 52.2700004578,
    "lon": 6.8741698265
  },
  "UDE": {
    "name": "Volkel Air Base",
    "city": "Uden",
    "country": "NL",
    "lat": 51.6563987732,
    "lon": 5.7086100578
  },
  "WOE": {
    "name": "Woensdrecht Air Base",
    "city": "Bergen Op Zoom",
    "country": "NL",
    "lat": 51.4491004944,
    "lon": 4.3420300484
  },
  "BYT": {
    "name": "Bantry Aerodrome",
    "city": "Bantry",
    "country": "IE",
    "lat": 51.668598175,
    "lon": -9.48416996
  },
  "BLY": {
    "name": "Belmullet Aerodrome",
    "city": "Belmullet",
    "country": "IE",
    "lat": 54.2228012085,
    "lon": -10.0307998657
  },
  "NNR": {
    "name": "Connemara Regional Airport",
    "city": "Inverin",
    "country": "IE",
    "lat": 53.2303009033,
    "lon": -9.4677801132
  },
  "CLB": {
    "name": "Castlebar Airport",
    "city": "Castlebar",
    "country": "IE",
    "lat": 53.848400116,
    "lon": -9.2803697586
  },
  "WEX": {
    "name": "Castlebridge Airport",
    "city": "Wexford",
    "country": "IE",
    "lat": 52.3333320618,
    "lon": -6.4666671753
  },
  "ORK": {
    "name": "Cork Airport",
    "city": "Cork",
    "country": "IE",
    "lat": 51.8413009644,
    "lon": -8.491109848
  },
  "GWY": {
    "name": "Galway Airport",
    "city": "Galway",
    "country": "IE",
    "lat": 53.300201416,
    "lon": -8.9415903091
  },
  "CFN": {
    "name": "Donegal Airport",
    "city": "Donegal",
    "country": "IE",
    "lat": 55.0442008972,
    "lon": -8.3409996033
  },
  "DUB": {
    "name": "Dublin Airport",
    "city": "Dublin",
    "country": "IE",
    "lat": 53.4212989807,
    "lon": -6.270070076
  },
  "IOR": {
    "name": "Inishmore Aerodrome",
    "city": "Inis Mor",
    "country": "IE",
    "lat": 53.1067008972,
    "lon": -9.6536102295
  },
  "INQ": {
    "name": "Inisheer Aerodrome",
    "city": "Inis Oirr",
    "country": "IE",
    "lat": 53.0647010803,
    "lon": -9.5108995438
  },
  "KKY": {
    "name": "Kilkenny Airport",
    "city": "Kilkenny",
    "country": "IE",
    "lat": 52.6507987976,
    "lon": -7.2961101532
  },
  "NOC": {
    "name": "Ireland West Knock Airport",
    "city": "Charleston",
    "country": "IE",
    "lat": 53.9103012085,
    "lon": -8.8184900284
  },
  "KIR": {
    "name": "Kerry Airport",
    "city": "Killarney",
    "country": "IE",
    "lat": 52.1809005737,
    "lon": -9.5237798691
  },
  "LTR": {
    "name": "Letterkenny Airport",
    "city": "Letterkenny",
    "country": "IE",
    "lat": 54.9513015747,
    "lon": -7.6728301048
  },
  "IIA": {
    "name": "Inishmaan Aerodrome",
    "city": "Inis Meain",
    "country": "IE",
    "lat": 53.0929985046,
    "lon": -9.5680599213
  },
  "SNN": {
    "name": "Shannon Airport",
    "city": "Shannon",
    "country": "IE",
    "lat": 52.7019996643,
    "lon": -8.9248199463
  },
  "SXL": {
    "name": "Sligo Airport",
    "city": "Sligo",
    "country": "IE",
    "lat": 54.2802009583,
    "lon": -8.5992097855
  },
  "WAT": {
    "name": "Waterford Airport",
    "city": "Waterford",
    "country": "IE",
    "lat": 52.1871986389,
    "lon": -7.0869598389
  },
  "AAR": {
    "name": "Aarhus Airport",
    "city": "Aarhus",
    "country": "DK",
    "lat": 56.2999992371,
    "lon": 10.6190004349
  },
  "BLL": {
    "name": "Billund Airport",
    "city": "Billund",
    "country": "DK",
    "lat": 55.7402992249,
    "lon": 9.1517801285
  },
  "CPH": {
    "name": "Copenhagen Kastrup Airport",
    "city": "Copenhagen",
    "country": "DK",
    "lat": 55.6179008484,
    "lon": 12.6560001373
  },
  "EBJ": {
    "name": "Esbjerg Airport",
    "city": "Esbjerg",
    "country": "DK",
    "lat": 55.5259017944,
    "lon": 8.5534000397
  },
  "KRP": {
    "name": "Karup Airport",
    "city": "Karup",
    "country": "DK",
    "lat": 56.2975006104,
    "lon": 9.1246299744
  },
  "BYR": {
    "name": "Laeso Airport",
    "city": "Laeso",
    "country": "DK",
    "lat": 57.2771987915,
    "lon": 11.0001001358
  },
  "MRW": {
    "name": "Lolland Falster Maribo Airport",
    "city": "Lolland Falster / Maribo",
    "country": "DK",
    "lat": 54.6992988586,
    "lon": 11.4400997162
  },
  "ODE": {
    "name": "Odense Airport",
    "city": "Odense",
    "country": "DK",
    "lat": 55.4766998291,
    "lon": 10.3309001923
  },
  "RKE": {
    "name": "Copenhagen Roskilde Airport",
    "city": "Copenhagen",
    "country": "DK",
    "lat": 55.5856018066,
    "lon": 12.1314001083
  },
  "RNN": {
    "name": "Bornholm Airport",
    "city": "Ronne",
    "country": "DK",
    "lat": 55.0633010864,
    "lon": 14.7595996857
  },
  "SGD": {
    "name": "Sonderborg Airport",
    "city": "Sonderborg",
    "country": "DK",
    "lat": 54.9644012451,
    "lon": 9.7917299271
  },
  "CNL": {
    "name": "Sindal Airport",
    "city": "Sindal",
    "country": "DK",
    "lat": 57.5035018921,
    "lon": 10.2293996811
  },
  "SKS": {
    "name": "Vojens Skrydstrup Airport",
    "city": "Vojens",
    "country": "DK",
    "lat": 55.2256011963,
    "lon": 9.2639303207
  },
  "SQW": {
    "name": "Skive Airport",
    "city": "Skive",
    "country": "DK",
    "lat": 56.550201416,
    "lon": 9.1729803085
  },
  "TED": {
    "name": "Thisted Airport",
    "city": "Thisted",
    "country": "DK",
    "lat": 57.0688018799,
    "lon": 8.7052202225
  },
  "STA": {
    "name": "Stauning Airport",
    "city": "Skjern / Ringkobing",
    "country": "DK",
    "lat": 55.9901008606,
    "lon": 8.3539104462
  },
  "AAL": {
    "name": "Aalborg Airport",
    "city": "Aalborg",
    "country": "DK",
    "lat": 57.0927589138,
    "lon": 9.8492431641
  },
  "LUX": {
    "name": "Luxembourg-Findel International Airport",
    "city": "Luxembourg",
    "country": "LU",
    "lat": 49.6265983582,
    "lon": 6.211520195
  },
  "AES": {
    "name": "Alesund Airport",
    "city": "Alesund",
    "country": "NO",
    "lat": 62.5625,
    "lon": 6.119699955
  },
  "ANX": {
    "name": "Andoya Airport",
    "city": "Andenes",
    "country": "NO",
    "lat": 69.2925033569,
    "lon": 16.1441993713
  },
  "ALF": {
    "name": "Alta Airport",
    "city": "Alta",
    "country": "NO",
    "lat": 69.9760971069,
    "lon": 23.3717002869
  },
  "FDE": {
    "name": "Bringeland Airport",
    "city": "Forde",
    "country": "NO",
    "lat": 61.3911018372,
    "lon": 5.756939888
  },
  "BNN": {
    "name": "Bronnoysund Airport",
    "city": "Bronnoy",
    "country": "NO",
    "lat": 65.4610977173,
    "lon": 12.217499733
  },
  "BOO": {
    "name": "Bodo Airport",
    "city": "Bodo",
    "country": "NO",
    "lat": 67.269203186,
    "lon": 14.3653001785
  },
  "BGO": {
    "name": "Bergen Airport Flesland",
    "city": "Bergen",
    "country": "NO",
    "lat": 60.2933998108,
    "lon": 5.2181401253
  },
  "BJF": {
    "name": "Batsfjord Airport",
    "city": "Batsfjord",
    "country": "NO",
    "lat": 70.6005020142,
    "lon": 29.691400528
  },
  "BVG": {
    "name": "Berlevag Airport",
    "city": "Berlevag",
    "country": "NO",
    "lat": 70.8713989258,
    "lon": 29.0342006683
  },
  "KRS": {
    "name": "Kristiansand Airport",
    "city": "Kjevik",
    "country": "NO",
    "lat": 58.2042007446,
    "lon": 8.0853700638
  },
  "DLD": {
    "name": "Geilo Airport Dagali",
    "city": "Dagali",
    "country": "NO",
    "lat": 60.417301178,
    "lon": 8.5183496475
  },
  "BDU": {
    "name": "Bardufoss Airport",
    "city": "Malselv",
    "country": "NO",
    "lat": 69.0558013916,
    "lon": 18.5403995514
  },
  "EVE": {
    "name": "Harstad/Narvik Airport Evenes",
    "city": "Evenes",
    "country": "NO",
    "lat": 68.4913024902,
    "lon": 16.6781005859
  },
  "VDB": {
    "name": "Leirin Airport",
    "city": "",
    "country": "NO",
    "lat": 61.0155982971,
    "lon": 9.2880601883
  },
  "FRO": {
    "name": "Floro Airport",
    "city": "Floro",
    "country": "NO",
    "lat": 61.5835990906,
    "lon": 5.024720192
  },
  "OSL": {
    "name": "Oslo Gardermoen Airport",
    "city": "Oslo",
    "country": "NO",
    "lat": 60.193901062,
    "lon": 11.100399971
  },
  "HMR": {
    "name": "Stafsberg Airport",
    "city": "Hamar",
    "country": "NO",
    "lat": 60.8180999756,
    "lon": 11.0679998398
  },
  "HAU": {
    "name": "Haugesund Airport",
    "city": "Karmoy",
    "country": "NO",
    "lat": 59.3452987671,
    "lon": 5.2083601952
  },
  "HFT": {
    "name": "Hammerfest Airport",
    "city": "Hammerfest",
    "country": "NO",
    "lat": 70.6797027588,
    "lon": 23.6686000824
  },
  "HAA": {
    "name": "Hasvik Airport",
    "city": "Hasvik",
    "country": "NO",
    "lat": 70.4867019653,
    "lon": 22.1396999359
  },
  "HVG": {
    "name": "Valan Airport",
    "city": "Honningsvag",
    "country": "NO",
    "lat": 71.0096969604,
    "lon": 25.9836006165
  },
  "ZXB": {
    "name": "Jan Mayen Jan Mayensfield",
    "city": "",
    "country": "NO",
    "lat": 70.9611111111,
    "lon": -8.5758333333
  },
  "QKX": {
    "name": "Kautokeino Air Base",
    "city": "",
    "country": "NO",
    "lat": 69.0402984619,
    "lon": 23.0340003967
  },
  "KSU": {
    "name": "Kristiansund Airport Kvernberget",
    "city": "Kvernberget",
    "country": "NO",
    "lat": 63.1118011475,
    "lon": 7.8245201111
  },
  "GLL": {
    "name": "Gol Airport",
    "city": "Klanten",
    "country": "NO",
    "lat": 60.7914009094,
    "lon": 9.0505599976
  },
  "KKN": {
    "name": "Kirkenes Airport Hoybuktmoen",
    "city": "Kirkenes",
    "country": "NO",
    "lat": 69.7257995605,
    "lon": 29.8913002014
  },
  "FAN": {
    "name": "Lista Airport",
    "city": "Farsund",
    "country": "NO",
    "lat": 58.0994987488,
    "lon": 6.6260499954
  },
  "LKN": {
    "name": "Leknes Airport",
    "city": "Leknes",
    "country": "NO",
    "lat": 68.1524963379,
    "lon": 13.6093997955
  },
  "MEH": {
    "name": "Mehamn Airport",
    "city": "Mehamn",
    "country": "NO",
    "lat": 71.0297012329,
    "lon": 27.8267002106
  },
  "MOL": {
    "name": "Molde Airport",
    "city": "Aro",
    "country": "NO",
    "lat": 62.7447013855,
    "lon": 7.2624998093
  },
  "MJF": {
    "name": "Mosjoen Airport Kjaerstad",
    "city": "",
    "country": "NO",
    "lat": 65.783996582,
    "lon": 13.2149000168
  },
  "LKL": {
    "name": "Banak Airport",
    "city": "Lakselv",
    "country": "NO",
    "lat": 70.0688018799,
    "lon": 24.9734992981
  },
  "NVK": {
    "name": "Narvik Framnes Airport",
    "city": "Narvik",
    "country": "NO",
    "lat": 68.4368972778,
    "lon": 17.3866996765
  },
  "OSY": {
    "name": "Namsos Hoknesora Airport",
    "city": "Namsos",
    "country": "NO",
    "lat": 64.4721984863,
    "lon": 11.5785999298
  },
  "NTB": {
    "name": "Notodden Airport",
    "city": "",
    "country": "NO",
    "lat": 59.565700531,
    "lon": 9.212220192
  },
  "OLA": {
    "name": "Orland Airport",
    "city": "Orland",
    "country": "NO",
    "lat": 63.6988983154,
    "lon": 9.6040000916
  },
  "HOV": {
    "name": "Orsta-Volda Airport Hovden",
    "city": "Orsta",
    "country": "NO",
    "lat": 62.1800003052,
    "lon": 6.0741000175
  },
  "MQN": {
    "name": "Mo i Rana Airport Rossvoll",
    "city": "Mo i Rana",
    "country": "NO",
    "lat": 66.363899231,
    "lon": 14.3014001846
  },
  "RVK": {
    "name": "Rorvik Airport Ryum",
    "city": "Rorvik",
    "country": "NO",
    "lat": 64.8383026123,
    "lon": 11.1461000443
  },
  "RRS": {
    "name": "Roros Airport",
    "city": "Roros",
    "country": "NO",
    "lat": 62.5783996582,
    "lon": 11.342300415
  },
  "RET": {
    "name": "Rost Airport",
    "city": "",
    "country": "NO",
    "lat": 67.5278015137,
    "lon": 12.1033000946
  },
  "RYG": {
    "name": "Moss Airport Rygge",
    "city": "Rygge",
    "country": "NO",
    "lat": 59.3788986206,
    "lon": 10.7855997086
  },
  "LYR": {
    "name": "Svalbard Airport Longyear",
    "city": "Longyearbyen",
    "country": "NO",
    "lat": 78.2461013794,
    "lon": 15.4656000137
  },
  "SDN": {
    "name": "Sandane Airport Anda",
    "city": "Sandane",
    "country": "NO",
    "lat": 61.8300018311,
    "lon": 6.1058301926
  },
  "SOG": {
    "name": "Sogndal Airport",
    "city": "Sogndal",
    "country": "NO",
    "lat": 61.1561012268,
    "lon": 7.1377801895
  },
  "SVJ": {
    "name": "Svolvaer Helle Airport",
    "city": "Svolvaer",
    "country": "NO",
    "lat": 68.2433013916,
    "lon": 14.6691999435
  },
  "SKN": {
    "name": "Stokmarknes Skagen Airport",
    "city": "Hadsel",
    "country": "NO",
    "lat": 68.5788269043,
    "lon": 15.033416748
  },
  "SKE": {
    "name": "Skien Airport",
    "city": "Geiteryggen",
    "country": "NO",
    "lat": 59.1850013733,
    "lon": 9.5669403076
  },
  "SRP": {
    "name": "Stord Airport",
    "city": "Leirvik",
    "country": "NO",
    "lat": 59.7919006348,
    "lon": 5.3408498764
  },
  "SOJ": {
    "name": "Sorkjosen Airport",
    "city": "Sorkjosen",
    "country": "NO",
    "lat": 69.7867965698,
    "lon": 20.959400177
  },
  "VAW": {
    "name": "Vardo Airport Svartnes",
    "city": "Vardo",
    "country": "NO",
    "lat": 70.3554000854,
    "lon": 31.0449008942
  },
  "SSJ": {
    "name": "Sandnessjoen Airport Stokka",
    "city": "Alstahaug",
    "country": "NO",
    "lat": 65.9568023682,
    "lon": 12.4688997269
  },
  "TOS": {
    "name": "Tromso Airport",
    "city": "Tromso",
    "country": "NO",
    "lat": 69.6832962036,
    "lon": 18.9188995361
  },
  "TRF": {
    "name": "Sandefjord Airport Torp",
    "city": "Torp",
    "country": "NO",
    "lat": 59.1866989136,
    "lon": 10.258600235
  },
  "TRD": {
    "name": "Trondheim Airport Vaernes",
    "city": "Trondheim",
    "country": "NO",
    "lat": 63.4578018188,
    "lon": 10.9239997864
  },
  "VDS": {
    "name": "Vadso Airport",
    "city": "Vadso",
    "country": "NO",
    "lat": 70.0652999878,
    "lon": 29.8446998596
  },
  "SVG": {
    "name": "Stavanger Airport Sola",
    "city": "Stavanger",
    "country": "NO",
    "lat": 58.876701355,
    "lon": 5.6377801895
  },
  "QYY": {
    "name": "Bialystok-Krywlany Airport",
    "city": "Bialystok",
    "country": "PL",
    "lat": 53.101398468,
    "lon": 23.1706008911
  },
  "BXP": {
    "name": "Biala Podlaska Airport",
    "city": "Biala Podlaska",
    "country": "PL",
    "lat": 52.0057983398,
    "lon": 23.1436004639
  },
  "BZG": {
    "name": "Bydgoszcz Ignacy Jan Paderewski Airport",
    "city": "Bydgoszcz",
    "country": "PL",
    "lat": 53.0968017578,
    "lon": 17.9776992798
  },
  "GDN": {
    "name": "Gdansk Lech Walesa Airport",
    "city": "Gdansk",
    "country": "PL",
    "lat": 54.3776016235,
    "lon": 18.4661998749
  },
  "QLC": {
    "name": "Gliwice Glider Airport",
    "city": "",
    "country": "PL",
    "lat": 50.2694015503,
    "lon": 18.6728000641
  },
  "KRK": {
    "name": "John Paul II International Airport Krakow-Balice Airport",
    "city": "Krakow",
    "country": "PL",
    "lat": 50.0777015686,
    "lon": 19.7847995758
  },
  "OSZ": {
    "name": "Koszalin Zegrze Airport",
    "city": "",
    "country": "PL",
    "lat": 54.0424995422,
    "lon": 16.2656002045
  },
  "KTW": {
    "name": "Katowice International Airport",
    "city": "Katowice",
    "country": "PL",
    "lat": 50.4743003845,
    "lon": 19.0799999237
  },
  "QEO": {
    "name": "Bielsko-Bialo Kaniow Airfield",
    "city": "Czechowice-Dziedzice",
    "country": "PL",
    "lat": 49.9399986267,
    "lon": 19.0219993591
  },
  "LUZ": {
    "name": "Lublin Airport",
    "city": "Lublin",
    "country": "PL",
    "lat": 51.240278,
    "lon": 22.713611
  },
  "LCJ": {
    "name": "Lodz Wladyslaw Reymont Airport",
    "city": "Lodz",
    "country": "PL",
    "lat": 51.7219009399,
    "lon": 19.3980998993
  },
  "QLU": {
    "name": "Lublin Radwiec Airport",
    "city": "",
    "country": "PL",
    "lat": 51.2219009399,
    "lon": 22.3946990967
  },
  "WMI": {
    "name": "Warsaw Modlin Airport",
    "city": "Warsaw",
    "country": "PL",
    "lat": 52.4510993958,
    "lon": 20.6518001556
  },
  "QWS": {
    "name": "Nowy Targ Airport",
    "city": "Nowy Targ",
    "country": "PL",
    "lat": 49.4627990723,
    "lon": 20.0503005981
  },
  "QYD": {
    "name": "Oksywie Military Air Base",
    "city": "Gdynia",
    "country": "PL",
    "lat": 54.57970047,
    "lon": 18.51720047
  },
  "QPM": {
    "name": "Opole-Polska Nowa Wies Airport",
    "city": "Opole",
    "country": "PL",
    "lat": 50.6333007812,
    "lon": 17.7817001343
  },
  "POZ": {
    "name": "Poznan-Lawica Airport",
    "city": "Poznan",
    "country": "PL",
    "lat": 52.4210014343,
    "lon": 16.8262996674
  },
  "RDO": {
    "name": "Warsaw-Radom Airport",
    "city": "Radom",
    "country": "PL",
    "lat": 51.3891983032,
    "lon": 21.213300705
  },
  "CZW": {
    "name": "Czestochowa-Rudniki Airport",
    "city": "Czestochowa",
    "country": "PL",
    "lat": 50.886133,
    "lon": 19.202472
  },
  "RZE": {
    "name": "Rzeszow-Jasionka Airport",
    "city": "Rzeszow",
    "country": "PL",
    "lat": 50.1100006104,
    "lon": 22.0189990997
  },
  "SZZ": {
    "name": "Szczecin-Goleniow Solidarnosc Airport",
    "city": "Goleniow",
    "country": "PL",
    "lat": 53.5847015381,
    "lon": 14.9021997452
  },
  "ZWK": {
    "name": "Suwalki Airport",
    "city": "Suwalki",
    "country": "PL",
    "lat": 54.0727996826,
    "lon": 22.8992004395
  },
  "SZY": {
    "name": "Olsztyn-Mazury Airport",
    "city": "Szymany",
    "country": "PL",
    "lat": 53.481944,
    "lon": 20.937778
  },
  "WAW": {
    "name": "Warsaw Chopin Airport",
    "city": "Warsaw",
    "country": "PL",
    "lat": 52.1656990051,
    "lon": 20.9671001434
  },
  "WRO": {
    "name": "Copernicus Wroclaw Airport",
    "city": "Wroclaw",
    "country": "PL",
    "lat": 51.1026992798,
    "lon": 16.885799408
  },
  "IEG": {
    "name": "Zielona Gora-Babimost Airport",
    "city": "Babimost",
    "country": "PL",
    "lat": 52.1385002136,
    "lon": 15.7986001968
  },
  "RNB": {
    "name": "Ronneby Airport",
    "city": "",
    "country": "SE",
    "lat": 56.2667007446,
    "lon": 15.2650003433
  },
  "XWP": {
    "name": "Hassleholm Bokeberg Airport",
    "city": "Hassleholm",
    "country": "SE",
    "lat": 56.1344069918,
    "lon": 13.8756465912
  },
  "GOT": {
    "name": "Gothenburg-Landvetter Airport",
    "city": "Gothenburg",
    "country": "SE",
    "lat": 57.6627998352,
    "lon": 12.279800415
  },
  "JKG": {
    "name": "Jonkoping Airport",
    "city": "Jonkoping",
    "country": "SE",
    "lat": 57.757598877,
    "lon": 14.0686998367
  },
  "LDK": {
    "name": "Lidkoping-Hovby Airport",
    "city": "Lidkoping",
    "country": "SE",
    "lat": 58.4654998779,
    "lon": 13.1744003296
  },
  "GSE": {
    "name": "Gothenburg City Airport",
    "city": "Gothenburg",
    "country": "SE",
    "lat": 57.7747001648,
    "lon": 11.8704004288
  },
  "KVB": {
    "name": "Skovde Airport",
    "city": "Skovde",
    "country": "SE",
    "lat": 58.456401825,
    "lon": 13.972700119
  },
  "THN": {
    "name": "Trollhattan-Vanersborg Airport",
    "city": "Trollhattan",
    "country": "SE",
    "lat": 58.3180999756,
    "lon": 12.345000267
  },
  "KSK": {
    "name": "Karlskoga Airport",
    "city": "",
    "country": "SE",
    "lat": 59.3459014893,
    "lon": 14.4959001541
  },
  "MXX": {
    "name": "Mora Airport",
    "city": "",
    "country": "SE",
    "lat": 60.957901001,
    "lon": 14.5114002228
  },
  "NYO": {
    "name": "Stockholm Skavsta Airport",
    "city": "Stockholm / Nykoping",
    "country": "SE",
    "lat": 58.7886009216,
    "lon": 16.9122009277
  },
  "SCR": {
    "name": "Salen Scandinavian Mountains Airport",
    "city": "Slen",
    "country": "SE",
    "lat": 61.159,
    "lon": 12.84
  },
  "KID": {
    "name": "Kristianstad Airport",
    "city": "Kristianstad",
    "country": "SE",
    "lat": 55.9216995239,
    "lon": 14.0854997635
  },
  "JLD": {
    "name": "Landskrona Airport",
    "city": "Landskrona",
    "country": "SE",
    "lat": 55.9459991455,
    "lon": 12.8699998856
  },
  "OSK": {
    "name": "Oskarshamn Airport",
    "city": "",
    "country": "SE",
    "lat": 57.3504981995,
    "lon": 16.4979991913
  },
  "KLR": {
    "name": "Kalmar Airport",
    "city": "",
    "country": "SE",
    "lat": 56.6855010986,
    "lon": 16.2875995636
  },
  "MMX": {
    "name": "Malmo Sturup Airport",
    "city": "Malmo",
    "country": "SE",
    "lat": 55.536305364,
    "lon": 13.3761978149
  },
  "HAD": {
    "name": "Halmstad Airport",
    "city": "Halmstad",
    "country": "SE",
    "lat": 56.6911010742,
    "lon": 12.8201999664
  },
  "VXO": {
    "name": "Vaxjo Kronoberg Airport",
    "city": "Vaxjo",
    "country": "SE",
    "lat": 56.9291000366,
    "lon": 14.7279996872
  },
  "EVG": {
    "name": "Sveg Airport",
    "city": "",
    "country": "SE",
    "lat": 62.0477981567,
    "lon": 14.4229001999
  },
  "GEV": {
    "name": "Gallivare Airport",
    "city": "Gallivare",
    "country": "SE",
    "lat": 67.1324005127,
    "lon": 20.8145999908
  },
  "KRF": {
    "name": "Kramfors Solleftea Airport",
    "city": "Kramfors / Solleftea",
    "country": "SE",
    "lat": 63.0485992432,
    "lon": 17.7688999176
  },
  "LYC": {
    "name": "Lycksele Airport",
    "city": "",
    "country": "SE",
    "lat": 64.5483016968,
    "lon": 18.7161998749
  },
  "SDL": {
    "name": "Sundsvall-Harnosand Airport",
    "city": "Sundsvall/ Harnosand",
    "country": "SE",
    "lat": 62.5280990601,
    "lon": 17.4438991547
  },
  "OER": {
    "name": "Ornskoldsvik Airport",
    "city": "Ornskoldsvik",
    "country": "SE",
    "lat": 63.4082984924,
    "lon": 18.9899997711
  },
  "KRN": {
    "name": "Kiruna Airport",
    "city": "",
    "country": "SE",
    "lat": 67.8219985962,
    "lon": 20.3367996216
  },
  "SFT": {
    "name": "Skelleftea Airport",
    "city": "Skelleftea",
    "country": "SE",
    "lat": 64.6248016357,
    "lon": 21.0769004822
  },
  "UME": {
    "name": "Umea Airport",
    "city": "Umea",
    "country": "SE",
    "lat": 63.7918014526,
    "lon": 20.2828006744
  },
  "VHM": {
    "name": "Vilhelmina Airport",
    "city": "",
    "country": "SE",
    "lat": 64.5791015625,
    "lon": 16.8335990906
  },
  "AJR": {
    "name": "Arvidsjaur Airport",
    "city": "Arvidsjaur",
    "country": "SE",
    "lat": 65.5903015137,
    "lon": 19.2819004059
  },
  "SOO": {
    "name": "Soderhamn Airport",
    "city": "Soderhamn",
    "country": "SE",
    "lat": 61.2615013123,
    "lon": 17.0991001129
  },
  "OSD": {
    "name": "Ostersund Airport",
    "city": "Ostersund",
    "country": "SE",
    "lat": 63.1944007874,
    "lon": 14.5003004074
  },
  "ORB": {
    "name": "Orebro Airport",
    "city": "Orebro",
    "country": "SE",
    "lat": 59.2237014771,
    "lon": 15.0380001068
  },
  "HFS": {
    "name": "Hagfors Airport",
    "city": "",
    "country": "SE",
    "lat": 60.0200996399,
    "lon": 13.5789003372
  },
  "KSD": {
    "name": "Karlstad Airport",
    "city": "Karlstad",
    "country": "SE",
    "lat": 59.4446983337,
    "lon": 13.3374004364
  },
  "VST": {
    "name": "Stockholm Vasteras Airport",
    "city": "Stockholm / Vasteras",
    "country": "SE",
    "lat": 59.5894012451,
    "lon": 16.633600235
  },
  "LLA": {
    "name": "Lulea Airport",
    "city": "Lulea",
    "country": "SE",
    "lat": 65.543800354,
    "lon": 22.1219997406
  },
  "ARN": {
    "name": "Stockholm-Arlanda Airport",
    "city": "Stockholm",
    "country": "SE",
    "lat": 59.6519012451,
    "lon": 17.9186000824
  },
  "BMA": {
    "name": "Stockholm-Bromma Airport",
    "city": "Stockholm",
    "country": "SE",
    "lat": 59.3544006348,
    "lon": 17.9416999817
  },
  "BLE": {
    "name": "Borlange Airport",
    "city": "",
    "country": "SE",
    "lat": 60.422000885,
    "lon": 15.5151996613
  },
  "HLF": {
    "name": "Hultsfred Airport",
    "city": "",
    "country": "SE",
    "lat": 57.5257987976,
    "lon": 15.8233003616
  },
  "GVX": {
    "name": "Gavle Sandviken Airport",
    "city": "Gavle / Sandviken",
    "country": "SE",
    "lat": 60.5932998657,
    "lon": 16.9514007568
  },
  "LPI": {
    "name": "Linkoping SAAB Airport",
    "city": "Linkoping",
    "country": "SE",
    "lat": 58.4062004089,
    "lon": 15.6805000305
  },
  "NRK": {
    "name": "Norrkoping Airport",
    "city": "Norrkoping",
    "country": "SE",
    "lat": 58.5862998962,
    "lon": 16.2506008148
  },
  "TYF": {
    "name": "Torsby Airport",
    "city": "",
    "country": "SE",
    "lat": 60.1576004028,
    "lon": 12.9912996292
  },
  "EKT": {
    "name": "Eskilstuna Airport",
    "city": "Eskilstuna",
    "country": "SE",
    "lat": 59.3511009216,
    "lon": 16.7084007263
  },
  "VBY": {
    "name": "Visby Airport",
    "city": "Visby",
    "country": "SE",
    "lat": 57.6627998352,
    "lon": 18.346200943
  },
  "VVK": {
    "name": "Vastervik Airport",
    "city": "Vastervik",
    "country": "SE",
    "lat": 57.7799987793,
    "lon": 16.5235996246
  },
  "AGH": {
    "name": "Angelholm-Helsingborg Airport",
    "city": "Angelholm",
    "country": "SE",
    "lat": 56.2961006165,
    "lon": 12.8471002579
  },
  "SQO": {
    "name": "Storuman Airport",
    "city": "",
    "country": "SE",
    "lat": 64.960899353,
    "lon": 17.6965999603
  },
  "IDB": {
    "name": "Idre Airport",
    "city": "Idre",
    "country": "SE",
    "lat": 61.8697013855,
    "lon": 12.6893997192
  },
  "PJA": {
    "name": "Pajala Airport",
    "city": "",
    "country": "SE",
    "lat": 67.2455978394,
    "lon": 23.0688991547
  },
  "HMV": {
    "name": "Hemavan Airport",
    "city": "",
    "country": "SE",
    "lat": 65.806098938,
    "lon": 15.0827999115
  },
  "SPM": {
    "name": "Spangdahlem Air Base",
    "city": "Trier",
    "country": "DE",
    "lat": 49.9726982117,
    "lon": 6.6925001144
  },
  "RMS": {
    "name": "Ramstein Air Base",
    "city": "Ramstein",
    "country": "DE",
    "lat": 49.4369010925,
    "lon": 7.600279808
  },
  "GHF": {
    "name": "Giebelstadt Army Air Field",
    "city": "",
    "country": "DE",
    "lat": 49.6481018066,
    "lon": 9.9664897919
  },
  "ZCN": {
    "name": "Celle Airport",
    "city": "",
    "country": "DE",
    "lat": 52.5912017822,
    "lon": 10.0221004486
  },
  "ZPQ": {
    "name": "Rheine Bentlage Airport",
    "city": "",
    "country": "DE",
    "lat": 52.2911987305,
    "lon": 7.3870000839
  },
  "FRZ": {
    "name": "Fritzlar Airport",
    "city": "Fritzlar",
    "country": "DE",
    "lat": 51.1146,
    "lon": 9.286
  },
  "ZNF": {
    "name": "Hanau Army Air Field",
    "city": "",
    "country": "DE",
    "lat": 50.1692008972,
    "lon": 8.9615898132
  },
  "ILH": {
    "name": "Illesheim Air Base",
    "city": "",
    "country": "DE",
    "lat": 49.4738998413,
    "lon": 10.3880996704
  },
  "NDZ": {
    "name": "Nordholz Airport",
    "city": "",
    "country": "DE",
    "lat": 53.7677001953,
    "lon": 8.6584997177
  },
  "GKE": {
    "name": "Geilenkirchen Airport",
    "city": "",
    "country": "DE",
    "lat": 50.9608001709,
    "lon": 6.0424199104
  },
  "QCN": {
    "name": "Hohn Airport",
    "city": "Hohn",
    "country": "DE",
    "lat": 54.3121986389,
    "lon": 9.5381698608
  },
  "RLG": {
    "name": "Rostock-Laage Airport",
    "city": "Rostock",
    "country": "DE",
    "lat": 53.9182014465,
    "lon": 12.2783002853
  },
  "QOE": {
    "name": "Norvenich Airport",
    "city": "",
    "country": "DE",
    "lat": 50.831199646,
    "lon": 6.6581702232
  },
  "WBG": {
    "name": "Schleswig Airport",
    "city": "",
    "country": "DE",
    "lat": 54.4593009949,
    "lon": 9.5163297653
  },
  "FNB": {
    "name": "Neubrandenburg Airport",
    "city": "",
    "country": "DE",
    "lat": 53.6021995544,
    "lon": 13.3059997559
  },
  "WIE": {
    "name": "Wiesbaden Army Airfield",
    "city": "Wiesbaden",
    "country": "DE",
    "lat": 50.0498008728,
    "lon": 8.3254003525
  },
  "FEL": {
    "name": "Furstenfeldbruck Airport",
    "city": "Furstenfeldbruck",
    "country": "DE",
    "lat": 48.2055549622,
    "lon": 11.2669439316
  },
  "IGS": {
    "name": "Ingolstadt Manching Airport",
    "city": "Manching",
    "country": "DE",
    "lat": 48.7156982422,
    "lon": 11.5340003967
  },
  "GUT": {
    "name": "Gutersloh Airport",
    "city": "Gutersloh",
    "country": "DE",
    "lat": 51.9227981567,
    "lon": 8.3063297272
  },
  "DGP": {
    "name": "Daugavpils Intrenational Airport",
    "city": "Daugavpils",
    "country": "LV",
    "lat": 55.9447212219,
    "lon": 26.6650009155
  },
  "LPX": {
    "name": "Liepaja International Airport",
    "city": "Liepaja",
    "country": "LV",
    "lat": 56.5175018311,
    "lon": 21.0969009399
  },
  "RIX": {
    "name": "Riga International Airport",
    "city": "Riga",
    "country": "LV",
    "lat": 56.9235992432,
    "lon": 23.9710998535
  },
  "VNT": {
    "name": "Ventspils International Airport",
    "city": "Ventspils",
    "country": "LV",
    "lat": 57.35779953,
    "lon": 21.5442008972
  },
  "KUN": {
    "name": "Kaunas International Airport",
    "city": "Kaunas",
    "country": "LT",
    "lat": 54.9639015198,
    "lon": 24.0848007202
  },
  "KLJ": {
    "name": "Klaipeda Airport",
    "city": "Klaipeda",
    "country": "LT",
    "lat": 55.7118988037,
    "lon": 21.2427997589
  },
  "PLQ": {
    "name": "Palanga International Airport",
    "city": "Palanga",
    "country": "LT",
    "lat": 55.9732017517,
    "lon": 21.0939006805
  },
  "PNV": {
    "name": "Panevezys Air Base",
    "city": "Panevezys",
    "country": "LT",
    "lat": 55.7294006348,
    "lon": 24.4608001709
  },
  "SQQ": {
    "name": "Siauliai International Airport",
    "city": "Siauliai",
    "country": "LT",
    "lat": 55.893901825,
    "lon": 23.3950004578
  },
  "HLJ": {
    "name": "Barysiai Airport",
    "city": "Barysiai",
    "country": "LT",
    "lat": 56.0705986023,
    "lon": 23.5580997467
  },
  "VNO": {
    "name": "Vilnius International Airport",
    "city": "Vilnius",
    "country": "LT",
    "lat": 54.6341018677,
    "lon": 25.2858009338
  },
  "FUE": {
    "name": "Fuerteventura Airport",
    "city": "Fuerteventura Island",
    "country": "ES",
    "lat": 28.4526996613,
    "lon": -13.8638000488
  },
  "GMZ": {
    "name": "La Gomera Airport",
    "city": "Alajero",
    "country": "ES",
    "lat": 28.0296001434,
    "lon": -17.2145996094
  },
  "VDE": {
    "name": "Hierro Airport",
    "city": "El Hierro Island",
    "country": "ES",
    "lat": 27.8148002625,
    "lon": -17.8871002197
  },
  "SPC": {
    "name": "La Palma Airport",
    "city": "Sta Cruz de la Palma",
    "country": "ES",
    "lat": 28.626499176,
    "lon": -17.7555999756
  },
  "LPA": {
    "name": "Gran Canaria Airport",
    "city": "Gran Canaria Island",
    "country": "ES",
    "lat": 27.9319000244,
    "lon": -15.3865995407
  },
  "ACE": {
    "name": "Lanzarote Airport",
    "city": "Lanzarote Island",
    "country": "ES",
    "lat": 28.9454994202,
    "lon": -13.6051998138
  },
  "TFS": {
    "name": "Tenerife South Airport",
    "city": "Tenerife Island",
    "country": "ES",
    "lat": 28.044500351,
    "lon": -16.5725002289
  },
  "TFN": {
    "name": "Tenerife Norte Airport",
    "city": "Tenerife Island",
    "country": "ES",
    "lat": 28.4827003479,
    "lon": -16.3414993286
  },
  "MLN": {
    "name": "Melilla Airport",
    "city": "Melilla Island",
    "country": "ES",
    "lat": 35.279800415,
    "lon": -2.9562599659
  },
  "KFZ": {
    "name": "Kukes Airport",
    "city": "Kukes",
    "country": "AL",
    "lat": 42.0336990356,
    "lon": 20.4158992767
  },
  "TIA": {
    "name": "Tirana International Airport Mother Teresa",
    "city": "Tirana",
    "country": "AL",
    "lat": 41.4146995544,
    "lon": 19.7206001282
  },
  "BOJ": {
    "name": "Burgas Airport",
    "city": "Burgas",
    "country": "BG",
    "lat": 42.5695991516,
    "lon": 27.5151996613
  },
  "GOZ": {
    "name": "Gorna Oryahovitsa Airport",
    "city": "Gorna Oryahovitsa",
    "country": "BG",
    "lat": 43.1514015198,
    "lon": 25.7129001617
  },
  "HKV": {
    "name": "Uzundzhovo Air Base",
    "city": "Haskovo",
    "country": "BG",
    "lat": 41.976398468,
    "lon": 25.589799881
  },
  "JAM": {
    "name": "Bezmer Air Base",
    "city": "Yambol",
    "country": "BG",
    "lat": 42.4548988342,
    "lon": 26.3521995544
  },
  "PDV": {
    "name": "Plovdiv International Airport",
    "city": "Plovdiv",
    "country": "BG",
    "lat": 42.0677986145,
    "lon": 24.8507995605
  },
  "PVN": {
    "name": "Dolna Mitropoliya Air Base",
    "city": "Dolna Mitropoliya",
    "country": "BG",
    "lat": 43.4514007568,
    "lon": 24.5027999878
  },
  "SOF": {
    "name": "Sofia Airport",
    "city": "Sofia",
    "country": "BG",
    "lat": 42.6966934204,
    "lon": 23.4114360809
  },
  "SLS": {
    "name": "Silistra Polkovnik Lambrinovo Airfield",
    "city": "Silistra",
    "country": "BG",
    "lat": 44.0551986694,
    "lon": 27.1788005829
  },
  "SZR": {
    "name": "Stara Zagora Airport",
    "city": "Stara Zagora",
    "country": "BG",
    "lat": 42.376701355,
    "lon": 25.6551990509
  },
  "TGV": {
    "name": "Bukhovtsi Airfield",
    "city": "Targovishte",
    "country": "BG",
    "lat": 43.3065986633,
    "lon": 26.7008991241
  },
  "VID": {
    "name": "Vidin Smurdan Airfield",
    "city": "Vidin",
    "country": "BG",
    "lat": 44.0223999023,
    "lon": 22.8160991669
  },
  "VAR": {
    "name": "Varna Airport",
    "city": "Varna",
    "country": "BG",
    "lat": 43.2321014404,
    "lon": 27.8250999451
  },
  "ECN": {
    "name": "Ercan International Airport",
    "city": "Nicosia",
    "country": "CY",
    "lat": 35.1547012329,
    "lon": 33.4961013794
  },
  "LCA": {
    "name": "Larnaca International Airport",
    "city": "Larnarca",
    "country": "CY",
    "lat": 34.8750991821,
    "lon": 33.6249008179
  },
  "PFO": {
    "name": "Paphos International Airport",
    "city": "Paphos",
    "country": "CY",
    "lat": 34.7179985046,
    "lon": 32.4856987
  },
  "AKT": {
    "name": "RAF Akrotiri",
    "city": "",
    "country": "CY",
    "lat": 34.5904006958,
    "lon": 32.9878997803
  },
  "DBV": {
    "name": "Dubrovnik Airport",
    "city": "Dubrovnik",
    "country": "HR",
    "lat": 42.5614013672,
    "lon": 18.2681999207
  },
  "LSZ": {
    "name": "Losinj Island Airport",
    "city": "Losinj",
    "country": "HR",
    "lat": 44.5657997131,
    "lon": 14.3930997849
  },
  "OSI": {
    "name": "Osijek Airport",
    "city": "Osijek",
    "country": "HR",
    "lat": 45.4626998901,
    "lon": 18.8101997375
  },
  "PUY": {
    "name": "Pula Airport",
    "city": "Pula",
    "country": "HR",
    "lat": 44.8935012817,
    "lon": 13.9222002029
  },
  "RJK": {
    "name": "Rijeka Airport",
    "city": "Rijeka",
    "country": "HR",
    "lat": 45.2168998718,
    "lon": 14.5703001022
  },
  "BWK": {
    "name": "Brac Airport",
    "city": "Brac Island",
    "country": "HR",
    "lat": 43.2857017517,
    "lon": 16.6797008514
  },
  "SPU": {
    "name": "Split Airport",
    "city": "Split",
    "country": "HR",
    "lat": 43.538898468,
    "lon": 16.2980003357
  },
  "ZAG": {
    "name": "Zagreb Airport",
    "city": "Zagreb",
    "country": "HR",
    "lat": 45.7429008484,
    "lon": 16.0687999725
  },
  "ZAD": {
    "name": "Zemunik Airport",
    "city": "Zadar",
    "country": "HR",
    "lat": 44.1082992554,
    "lon": 15.3466997147
  },
  "ABC": {
    "name": "Albacete-Los Llanos Airport",
    "city": "Albacete",
    "country": "ES",
    "lat": 38.9485015869,
    "lon": -1.8635200262
  },
  "ALC": {
    "name": "Alicante International Airport",
    "city": "Alicante",
    "country": "ES",
    "lat": 38.2821998596,
    "lon": -0.5581560135
  },
  "LEI": {
    "name": "Almeria International Airport",
    "city": "Almeria",
    "country": "ES",
    "lat": 36.8438987732,
    "lon": -2.3701000214
  },
  "OVD": {
    "name": "Asturias Airport",
    "city": "Ranon",
    "country": "ES",
    "lat": 43.5635986328,
    "lon": -6.0346198082
  },
  "ODB": {
    "name": "Cordoba Airport",
    "city": "Cordoba",
    "country": "ES",
    "lat": 37.841999054,
    "lon": -4.8488798141
  },
  "BIO": {
    "name": "Bilbao Airport",
    "city": "Bilbao",
    "country": "ES",
    "lat": 43.3011016846,
    "lon": -2.9106099606
  },
  "RGS": {
    "name": "Burgos Airport",
    "city": "Burgos",
    "country": "ES",
    "lat": 42.3576011658,
    "lon": -3.620759964
  },
  "BCN": {
    "name": "Barcelona International Airport",
    "city": "Barcelona",
    "country": "ES",
    "lat": 41.2971000671,
    "lon": 2.0784599781
  },
  "BJZ": {
    "name": "Badajoz Airport",
    "city": "Badajoz",
    "country": "ES",
    "lat": 38.8913002014,
    "lon": -6.8213300705
  },
  "CDT": {
    "name": "CastellnCosta Azahar Airport",
    "city": "Castelln",
    "country": "ES",
    "lat": 40.209722,
    "lon": 0.069722
  },
  "LCG": {
    "name": "A Coruna Airport",
    "city": "Culleredo",
    "country": "ES",
    "lat": 43.3021011353,
    "lon": -8.3772602081
  },
  "ECV": {
    "name": "Cuatro Vientos Airport",
    "city": "Madrid",
    "country": "ES",
    "lat": 40.3707008362,
    "lon": -3.7851400375
  },
  "ILD": {
    "name": "Lleida-Alguaire Airport",
    "city": "Lleida",
    "country": "ES",
    "lat": 41.728185,
    "lon": 0.535023
  },
  "GRO": {
    "name": "Girona Airport",
    "city": "Girona",
    "country": "ES",
    "lat": 41.9010009766,
    "lon": 2.7605500221
  },
  "GRX": {
    "name": "Federico Garcia Lorca Airport",
    "city": "Granada",
    "country": "ES",
    "lat": 37.1887016296,
    "lon": -3.7773599625
  },
  "HSK": {
    "name": "Huesca/Pirineos Airport",
    "city": "Monflorite/Alcala del Obispo",
    "country": "ES",
    "lat": 42.0760993958,
    "lon": -0.3166669905
  },
  "IBZ": {
    "name": "Ibiza Airport",
    "city": "Ibiza",
    "country": "ES",
    "lat": 38.8728981018,
    "lon": 1.3731199503
  },
  "XRY": {
    "name": "Jerez Airport",
    "city": "Jerez de la Forntera",
    "country": "ES",
    "lat": 36.7445983887,
    "lon": -6.0601100922
  },
  "MJV": {
    "name": "San Javier Airport",
    "city": "San Javier",
    "country": "ES",
    "lat": 37.7750015259,
    "lon": -0.8123890162
  },
  "QSA": {
    "name": "Sabadell Airport",
    "city": "Sabadell",
    "country": "ES",
    "lat": 41.5209007263,
    "lon": 2.1050798893
  },
  "LEN": {
    "name": "Leon Airport",
    "city": "Leon",
    "country": "ES",
    "lat": 42.5890007019,
    "lon": -5.6555600166
  },
  "RJL": {
    "name": "Logrono-Agoncillo Airport",
    "city": "Logrono",
    "country": "ES",
    "lat": 42.4609534888,
    "lon": -2.3222351074
  },
  "MAD": {
    "name": "Madrid Barajas International Airport",
    "city": "Madrid",
    "country": "ES",
    "lat": 40.4936,
    "lon": -3.56676
  },
  "HEV": {
    "name": "Mafe - Gibraleon Airport",
    "city": "Gibraleon",
    "country": "ES",
    "lat": 37.3642997742,
    "lon": -6.9209399223
  },
  "AGP": {
    "name": "Malaga Airport",
    "city": "Malaga",
    "country": "ES",
    "lat": 36.6749000549,
    "lon": -4.4991102219
  },
  "MAH": {
    "name": "Menorca Airport",
    "city": "Menorca Island",
    "country": "ES",
    "lat": 39.8625984192,
    "lon": 4.2186498642
  },
  "RMU": {
    "name": "Regin de Murcia International Airport",
    "city": "Corvera",
    "country": "ES",
    "lat": 37.803,
    "lon": -1.125
  },
  "OZP": {
    "name": "Moron Air Base",
    "city": "Moron",
    "country": "ES",
    "lat": 37.1749000549,
    "lon": -5.615940094
  },
  "PMI": {
    "name": "Palma De Mallorca Airport",
    "city": "Palma De Mallorca",
    "country": "ES",
    "lat": 39.551700592,
    "lon": 2.7388100624
  },
  "PNA": {
    "name": "Pamplona Airport",
    "city": "Pamplona",
    "country": "ES",
    "lat": 42.7700004578,
    "lon": -1.646329999
  },
  "CQM": {
    "name": "Ciudad Real Central Airport",
    "city": "Ciudad Real",
    "country": "ES",
    "lat": 38.856389,
    "lon": -3.97
  },
  "REU": {
    "name": "Reus Air Base",
    "city": "Reus",
    "country": "ES",
    "lat": 41.1473999023,
    "lon": 1.1671700478
  },
  "ROZ": {
    "name": "Rota Naval Station Airport",
    "city": "Rota",
    "country": "ES",
    "lat": 36.645198822,
    "lon": -6.349460125
  },
  "SLM": {
    "name": "Salamanca Airport",
    "city": "Salamanca",
    "country": "ES",
    "lat": 40.9520988464,
    "lon": -5.5019898415
  },
  "EAS": {
    "name": "San Sebastian Airport",
    "city": "Hondarribia",
    "country": "ES",
    "lat": 43.3564987183,
    "lon": -1.7906099558
  },
  "SCQ": {
    "name": "Santiago de Compostela Airport",
    "city": "Santiago de Compostela",
    "country": "ES",
    "lat": 42.8963012695,
    "lon": -8.415140152
  },
  "LEU": {
    "name": "Aerodrom dels Pirineus-Alt Urgell Airport",
    "city": "Montferrer / Castellbo",
    "country": "ES",
    "lat": 42.3386001587,
    "lon": 1.4091700315
  },
  "TEV": {
    "name": "Teruel Airport",
    "city": "Teruel",
    "country": "ES",
    "lat": 40.4119444444,
    "lon": -1.2175
  },
  "TOJ": {
    "name": "Torrejon Airport",
    "city": "Madrid",
    "country": "ES",
    "lat": 40.4967002869,
    "lon": -3.4458699226
  },
  "VLC": {
    "name": "Valencia Airport",
    "city": "Valencia",
    "country": "ES",
    "lat": 39.4892997742,
    "lon": -0.4816249907
  },
  "VLL": {
    "name": "Valladolid Airport",
    "city": "Valladolid",
    "country": "ES",
    "lat": 41.7061004639,
    "lon": -4.851940155
  },
  "VIT": {
    "name": "Vitoria/Foronda Airport",
    "city": "Alava",
    "country": "ES",
    "lat": 42.8828010559,
    "lon": -2.7244699001
  },
  "VGO": {
    "name": "Vigo Airport",
    "city": "Vigo",
    "country": "ES",
    "lat": 42.2318000793,
    "lon": -8.6267700195
  },
  "SDR": {
    "name": "Santander Airport",
    "city": "Santander",
    "country": "ES",
    "lat": 43.4271011353,
    "lon": -3.8200099468
  },
  "ZAZ": {
    "name": "Zaragoza Air Base",
    "city": "Zaragoza",
    "country": "ES",
    "lat": 41.6661987305,
    "lon": -1.0415500402
  },
  "SVQ": {
    "name": "Sevilla Airport",
    "city": "Sevilla",
    "country": "ES",
    "lat": 37.4179992676,
    "lon": -5.8931097984
  },
  "DPE": {
    "name": "St Aubin Airport",
    "city": "Dieppe",
    "country": "FR",
    "lat": 49.8824996948,
    "lon": 1.0852799416
  },
  "CQF": {
    "name": "Calais-Dunkerque Airport",
    "city": "Marck",
    "country": "FR",
    "lat": 50.9621009827,
    "lon": 1.9547599554
  },
  "XCP": {
    "name": "Compiegne Margny Airport",
    "city": "Compiegne",
    "country": "FR",
    "lat": 49.4343986511,
    "lon": 2.8061099052
  },
  "XLN": {
    "name": "Laon - Chambry Airport",
    "city": "Laon-Chambry",
    "country": "FR",
    "lat": 49.5957984924,
    "lon": 3.6316699982
  },
  "XSJ": {
    "name": "Peronne-Saint-Quentin Airport",
    "city": "Peronne/Saint-Quentin",
    "country": "FR",
    "lat": 49.8684997559,
    "lon": 3.0295801163
  },
  "XDK": {
    "name": "Dunkerque Les Moeres Airport",
    "city": "Les Moeres",
    "country": "FR",
    "lat": 51.040599823,
    "lon": 2.5502800941
  },
  "BYF": {
    "name": "Albert-Bray Airport",
    "city": "Albert/Bray",
    "country": "FR",
    "lat": 49.9715003967,
    "lon": 2.6976599693
  },
  "LTQ": {
    "name": "Le Touquet-Cote d'Opale Airport",
    "city": "Le Touquet-Paris-Plage",
    "country": "FR",
    "lat": 50.5173988342,
    "lon": 1.6205899715
  },
  "XVS": {
    "name": "Valenciennes-Denain Airport",
    "city": "Valenciennes/Denain",
    "country": "FR",
    "lat": 50.3258018494,
    "lon": 3.4612600803
  },
  "QAM": {
    "name": "Amiens-Glisy Airport",
    "city": "Amiens/Glisy",
    "country": "FR",
    "lat": 49.8730010986,
    "lon": 2.3870699406
  },
  "AGF": {
    "name": "Agen-La Garenne Airport",
    "city": "Agen/La Garenne",
    "country": "FR",
    "lat": 44.1747016907,
    "lon": 0.5905560255
  },
  "BOD": {
    "name": "Bordeaux-Merignac (BA 106) Airport",
    "city": "Bordeaux/Merignac",
    "country": "FR",
    "lat": 44.8283004761,
    "lon": -0.7155560255
  },
  "EGC": {
    "name": "Bergerac-Roumaniere Airport",
    "city": "Bergerac/Roumaniere",
    "country": "FR",
    "lat": 44.8252983093,
    "lon": 0.5186110139
  },
  "CNG": {
    "name": "Cognac-Chateaubernard (BA 709) Air Base",
    "city": "Cognac/Chateaubernard",
    "country": "FR",
    "lat": 45.6582984924,
    "lon": -0.3174999952
  },
  "LRH": {
    "name": "La Rochelle-Ile de Re Airport",
    "city": "La Rochelle/Ile de Re",
    "country": "FR",
    "lat": 46.1791992188,
    "lon": -1.1952799559
  },
  "PIS": {
    "name": "Poitiers-Biard Airport",
    "city": "Poitiers/Biard",
    "country": "FR",
    "lat": 46.5876998901,
    "lon": 0.3066659868
  },
  "MCU": {
    "name": "Montlucon-Gueret Airport",
    "city": "Montlucon/Gueret",
    "country": "FR",
    "lat": 46.2225990295,
    "lon": 2.3639600277
  },
  "LIG": {
    "name": "Limoges Airport",
    "city": "Limoges/Bellegarde",
    "country": "FR",
    "lat": 45.8628005981,
    "lon": 1.1794400215
  },
  "XMJ": {
    "name": "Mont-de-Marsan (BA 118) Air Base",
    "city": "Mont-de-Marsan",
    "country": "FR",
    "lat": 43.9117012024,
    "lon": -0.5074999928
  },
  "NIT": {
    "name": "Niort-Souche Airport",
    "city": "Niort/Souche",
    "country": "FR",
    "lat": 46.3112983704,
    "lon": -0.4015029967
  },
  "TLS": {
    "name": "Toulouse-Blagnac Airport",
    "city": "Toulouse/Blagnac",
    "country": "FR",
    "lat": 43.6291007996,
    "lon": 1.3638199568
  },
  "PUF": {
    "name": "Pau Pyrenees Airport",
    "city": "Pau/Pyrenees (Uzein)",
    "country": "FR",
    "lat": 43.3800010681,
    "lon": -0.41861099
  },
  "LDE": {
    "name": "Tarbes-Lourdes-Pyrenees Airport",
    "city": "Tarbes/Lourdes/Pyrenees",
    "country": "FR",
    "lat": 43.1786994934,
    "lon": -0.0064389999
  },
  "ANG": {
    "name": "Angouleme-Brie-Champniers Airport",
    "city": "Angouleme/Brie/Champniers",
    "country": "FR",
    "lat": 45.7291984558,
    "lon": 0.2214560062
  },
  "PGX": {
    "name": "Perigueux-Bassillac Airport",
    "city": "Perigueux/Bassillac",
    "country": "FR",
    "lat": 45.1981010437,
    "lon": 0.8155559897
  },
  "XDA": {
    "name": "Dax Seyresse Airport",
    "city": "Perigueux",
    "country": "FR",
    "lat": 43.689201355,
    "lon": -1.0688899755
  },
  "BIQ": {
    "name": "Biarritz-Anglet-Bayonne Airport",
    "city": "Biarritz/Anglet/Bayonne",
    "country": "FR",
    "lat": 43.4683990479,
    "lon": -1.5233199596
  },
  "XCX": {
    "name": "Chatellerault Airport",
    "city": "Biarritz",
    "country": "FR",
    "lat": 46.7813987732,
    "lon": 0.5519440174
  },
  "ZAO": {
    "name": "Cahors-Lalbenque Airport",
    "city": "Cahors/Lalbenque",
    "country": "FR",
    "lat": 44.351398468,
    "lon": 1.4752800465
  },
  "XGT": {
    "name": "Gueret St Laurent Airport",
    "city": "Cahors",
    "country": "FR",
    "lat": 46.1791992188,
    "lon": 1.9583300352
  },
  "XAC": {
    "name": "Arcachon-La Teste-de-Buch Airport",
    "city": "Arcachon/La Teste-de-Buch",
    "country": "FR",
    "lat": 44.5964012146,
    "lon": -1.1108299494
  },
  "LBI": {
    "name": "Albi-Le Sequestre Airport",
    "city": "Albi/Le Sequestre",
    "country": "FR",
    "lat": 43.913898468,
    "lon": 2.1130599976
  },
  "DCM": {
    "name": "Castres-Mazamet Airport",
    "city": "Castres/Mazamet",
    "country": "FR",
    "lat": 43.5563011169,
    "lon": 2.2891800404
  },
  "RDZ": {
    "name": "Rodez-Marcillac Airport",
    "city": "Rodez/Marcillac",
    "country": "FR",
    "lat": 44.4079017639,
    "lon": 2.4826700687
  },
  "RYN": {
    "name": "Royan-Medis Airport",
    "city": "Royan/Medis",
    "country": "FR",
    "lat": 45.6281013489,
    "lon": -0.9725000262
  },
  "XMW": {
    "name": "Montauban Airport",
    "city": "Montauban",
    "country": "FR",
    "lat": 44.0256996155,
    "lon": 1.3780399561
  },
  "XLR": {
    "name": "Libourne-Artigues-de-Lussac Airport",
    "city": "Libourne/Artigues-de-Lussac",
    "country": "FR",
    "lat": 44.9824981689,
    "lon": -0.1347219944
  },
  "RCO": {
    "name": "Rochefort-Saint-Agnant (BA 721) Airport",
    "city": "Rochefort/Saint-Agnant",
    "country": "FR",
    "lat": 45.8877983093,
    "lon": -0.9830560088
  },
  "XSL": {
    "name": "Sarlat Domme Airport",
    "city": "Rochefort",
    "country": "FR",
    "lat": 44.7933006287,
    "lon": 1.2447199821
  },
  "XTB": {
    "name": "Tarbes Laloubere Airport",
    "city": "Rochefort",
    "country": "FR",
    "lat": 43.2160987854,
    "lon": 0.0786110014
  },
  "IDY": {
    "name": "Ile d'Yeu Airport",
    "city": "Ile d'Yeu",
    "country": "FR",
    "lat": 46.7186012268,
    "lon": -2.3911099434
  },
  "CMR": {
    "name": "Colmar-Houssen Airport",
    "city": "Colmar/Houssen",
    "country": "FR",
    "lat": 48.1099014282,
    "lon": 7.3590102196
  },
  "XBV": {
    "name": "Beaune-Challanges Airport",
    "city": "Beaune/Challanges",
    "country": "FR",
    "lat": 47.0059013367,
    "lon": 4.8934202194
  },
  "DLE": {
    "name": "Dole-Tavaux Airport",
    "city": "Dole/Tavaux",
    "country": "FR",
    "lat": 47.0390014648,
    "lon": 5.4272499084
  },
  "XVN": {
    "name": "Verdun-Le Rozelier Airport",
    "city": "Verdun/Le Rozelier",
    "country": "FR",
    "lat": 49.1223983765,
    "lon": 5.4690499306
  },
  "MVV": {
    "name": "Megeve Airport",
    "city": "Verdun",
    "country": "FR",
    "lat": 45.8208007813,
    "lon": 6.6522197723
  },
  "OBS": {
    "name": "Aubenas-Ardeche Meridional Airport",
    "city": "Aubenas/Ardeche Meridional",
    "country": "FR",
    "lat": 44.5442008972,
    "lon": 4.3721899986
  },
  "LPY": {
    "name": "Le Puy-Loudes Airport",
    "city": "Le Puy/Loudes",
    "country": "FR",
    "lat": 45.0806999207,
    "lon": 3.7628901005
  },
  "XBK": {
    "name": "Bourg-Ceyzeriat Airport",
    "city": "Bourg/Ceyzeriat",
    "country": "FR",
    "lat": 46.2009010315,
    "lon": 5.2920298576
  },
  "AHZ": {
    "name": "L'alpe D'huez Airport",
    "city": "Bourg",
    "country": "FR",
    "lat": 45.0882987976,
    "lon": 6.0847201347
  },
  "XVF": {
    "name": "Villefranche-Tarare Airport",
    "city": "Villefranche/Tarare",
    "country": "FR",
    "lat": 45.919983,
    "lon": 4.634931
  },
  "XMU": {
    "name": "Moulins-Montbeugny Airport",
    "city": "Moulins/Montbeugny",
    "country": "FR",
    "lat": 46.5345993042,
    "lon": 3.423719883
  },
  "ETZ": {
    "name": "Metz-Nancy-Lorraine Airport",
    "city": "Metz / Nancy",
    "country": "FR",
    "lat": 48.9821014404,
    "lon": 6.2513198853
  },
  "ANE": {
    "name": "Angers-Loire Airport",
    "city": "Angers/Marce",
    "country": "FR",
    "lat": 47.5602989197,
    "lon": -0.3122220039
  },
  "XAV": {
    "name": "Albertville Airport",
    "city": "Angers",
    "country": "FR",
    "lat": 45.6272010803,
    "lon": 6.3297200203
  },
  "BIA": {
    "name": "Bastia-Poretta Airport",
    "city": "Bastia/Poretta",
    "country": "FR",
    "lat": 42.5527000427,
    "lon": 9.4837303162
  },
  "CLY": {
    "name": "Calvi-Sainte-Catherine Airport",
    "city": "Calvi/Sainte-Catherine",
    "country": "FR",
    "lat": 42.5307998657,
    "lon": 8.7931900024
  },
  "FSC": {
    "name": "Figari Sud-Corse Airport",
    "city": "Figari Sud-Corse",
    "country": "FR",
    "lat": 41.5005989075,
    "lon": 9.0977802277
  },
  "AJA": {
    "name": "Ajaccio-Napoleon Bonaparte Airport",
    "city": "Ajaccio/Napoleon Bonaparte",
    "country": "FR",
    "lat": 41.9235992432,
    "lon": 8.8029203415
  },
  "PRP": {
    "name": "Propriano Airport",
    "city": "Propriano",
    "country": "FR",
    "lat": 41.6605987549,
    "lon": 8.889749527
  },
  "SOZ": {
    "name": "Solenzara (BA 126) Air Base",
    "city": "Solenzara",
    "country": "FR",
    "lat": 41.9244003296,
    "lon": 9.4060001373
  },
  "MFX": {
    "name": "Meribel Airport",
    "city": "Ajaccio",
    "country": "FR",
    "lat": 45.4068984985,
    "lon": 6.5805602074
  },
  "AUF": {
    "name": "Auxerre-Branches Airport",
    "city": "Auxerre/Branches",
    "country": "FR",
    "lat": 47.8502006531,
    "lon": 3.49710989
  },
  "CMF": {
    "name": "Chambery-Savoie Airport",
    "city": "Chambery/Aix-les-Bains",
    "country": "FR",
    "lat": 45.6380996704,
    "lon": 5.88022995
  },
  "CFE": {
    "name": "Clermont-Ferrand Auvergne Airport",
    "city": "Clermont-Ferrand/Auvergne",
    "country": "FR",
    "lat": 45.7867012024,
    "lon": 3.1691699028
  },
  "BOU": {
    "name": "Bourges Airport",
    "city": "Bourges",
    "country": "FR",
    "lat": 47.0581016541,
    "lon": 2.3702800274
  },
  "XCD": {
    "name": "Chalon-Champforgeuil Airport",
    "city": "Chalon/Champforgueil",
    "country": "FR",
    "lat": 46.8260993958,
    "lon": 4.8176298141
  },
  "QNJ": {
    "name": "Annemasse Airport",
    "city": "Annemasse",
    "country": "FR",
    "lat": 46.1920013428,
    "lon": 6.2683901787
  },
  "CVF": {
    "name": "Courchevel Airport",
    "city": "Courcheval",
    "country": "FR",
    "lat": 45.3967018127,
    "lon": 6.6347198486
  },
  "LYS": {
    "name": "Lyon Saint-Exupery Airport",
    "city": "Lyon",
    "country": "FR",
    "lat": 45.726398468,
    "lon": 5.0908298492
  },
  "QNX": {
    "name": "Macon-Charnay Airport",
    "city": "Macon/Charnay",
    "country": "FR",
    "lat": 46.2951011658,
    "lon": 4.7957701683
  },
  "SYT": {
    "name": "Saint-Yan Airport",
    "city": "Saint-Yan",
    "country": "FR",
    "lat": 46.4124984741,
    "lon": 4.0132598877
  },
  "RNE": {
    "name": "Roanne-Renaison Airport",
    "city": "Roanne/Renaison",
    "country": "FR",
    "lat": 46.0583000183,
    "lon": 4.0013899803
  },
  "NCY": {
    "name": "Annecy-Haute-Savoie-Mont Blanc Airport",
    "city": "Annecy/Meythet",
    "country": "FR",
    "lat": 45.9291992188,
    "lon": 6.098760128
  },
  "XMK": {
    "name": "Montelimar - Ancone Airport",
    "city": "Annecy",
    "country": "FR",
    "lat": 44.5835990906,
    "lon": 4.7405600548
  },
  "GNB": {
    "name": "Grenoble-Isere Airport",
    "city": "Grenoble/Saint-Geoirs",
    "country": "FR",
    "lat": 45.3628997803,
    "lon": 5.3293700218
  },
  "VAF": {
    "name": "Valence-Chabeuil Airport",
    "city": "Valence/Chabeuil",
    "country": "FR",
    "lat": 44.9216003418,
    "lon": 4.9699001312
  },
  "VHY": {
    "name": "Vichy-Charmeil Airport",
    "city": "Vichy/Charmeil",
    "country": "FR",
    "lat": 46.1697006226,
    "lon": 3.4037399292
  },
  "AUR": {
    "name": "Aurillac Airport",
    "city": "Aurillac",
    "country": "FR",
    "lat": 44.8913993835,
    "lon": 2.4219400883
  },
  "CHR": {
    "name": "Chateauroux-Deols Marcel Dassault Airport",
    "city": "Chateauroux/Deols",
    "country": "FR",
    "lat": 46.8622016907,
    "lon": 1.7306699753
  },
  "LYN": {
    "name": "Lyon-Bron Airport",
    "city": "Lyon/Bron",
    "country": "FR",
    "lat": 45.7271995544,
    "lon": 4.944270134
  },
  "QXB": {
    "name": "Aix-en-Provence (BA 114) Airport",
    "city": "Lyon",
    "country": "FR",
    "lat": 43.5055999756,
    "lon": 5.3677802086
  },
  "CEQ": {
    "name": "Cannes-Mandelieu Airport",
    "city": "Cannes/Mandelieu",
    "country": "FR",
    "lat": 43.5419998169,
    "lon": 6.9534797668
  },
  "EBU": {
    "name": "Saint-Etienne-Boutheon Airport",
    "city": "Saint-Etienne/Boutheon",
    "country": "FR",
    "lat": 45.540599823,
    "lon": 4.2963900566
  },
  "QIE": {
    "name": "Istres Le Tube/Istres Air Base (BA 125) Airport",
    "city": "Istres/Le Tube",
    "country": "FR",
    "lat": 43.5227012634,
    "lon": 4.9238400459
  },
  "CCF": {
    "name": "Carcassonne Airport",
    "city": "Carcassonne/Salvaza",
    "country": "FR",
    "lat": 43.2159996033,
    "lon": 2.306319952
  },
  "MRS": {
    "name": "Marseille Provence Airport",
    "city": "Marseille",
    "country": "FR",
    "lat": 43.439271922,
    "lon": 5.2214241028
  },
  "NCE": {
    "name": "Nice-Cote d'Azur Airport",
    "city": "Nice",
    "country": "FR",
    "lat": 43.6584014893,
    "lon": 7.2158699036
  },
  "XOG": {
    "name": "Orange-Caritat (BA 115) Air Base",
    "city": "Orange/Caritat",
    "country": "FR",
    "lat": 44.140499115,
    "lon": 4.8667201996
  },
  "PGF": {
    "name": "Perpignan-Rivesaltes (Llabanere) Airport",
    "city": "Perpignan/Rivesaltes",
    "country": "FR",
    "lat": 42.740398407,
    "lon": 2.8706700802
  },
  "CTT": {
    "name": "Le Castellet Airport",
    "city": "Le Castellet",
    "country": "FR",
    "lat": 43.2524986267,
    "lon": 5.7851901054
  },
  "BAE": {
    "name": "Barcelonnette - Saint-Pons Airport",
    "city": "Le Castellet",
    "country": "FR",
    "lat": 44.3883018494,
    "lon": 6.6102800369
  },
  "XAS": {
    "name": "Ales-Deaux Airport",
    "city": "Ales/Deaux",
    "country": "FR",
    "lat": 44.0696983337,
    "lon": 4.1421198845
  },
  "MPL": {
    "name": "Montpellier-Mediterranee Airport",
    "city": "Montpellier/Mediterranee",
    "country": "FR",
    "lat": 43.5761985779,
    "lon": 3.9630100727
  },
  "BZR": {
    "name": "Beziers-Vias Airport",
    "city": "Beziers/Vias",
    "country": "FR",
    "lat": 43.3235015869,
    "lon": 3.3538999557
  },
  "AVN": {
    "name": "Avignon-Caumont Airport",
    "city": "Avignon/Caumont",
    "country": "FR",
    "lat": 43.9072990417,
    "lon": 4.9018301964
  },
  "GAT": {
    "name": "Gap - Tallard Airport",
    "city": "Avignon",
    "country": "FR",
    "lat": 44.4550018311,
    "lon": 6.037779808
  },
  "MEN": {
    "name": "Mende-Brenoux Airport",
    "city": "Mende/Brenoux",
    "country": "FR",
    "lat": 44.5021018982,
    "lon": 3.5328199863
  },
  "SCP": {
    "name": "Mont-Dauphin - St-Crepin Airport",
    "city": "Mende",
    "country": "FR",
    "lat": 44.7016983032,
    "lon": 6.600279808
  },
  "BVA": {
    "name": "Paris Beauvais Tille Airport",
    "city": "Beauvais/Tille",
    "country": "FR",
    "lat": 49.4543991089,
    "lon": 2.1127800941
  },
  "XSU": {
    "name": "Saumur-Saint-Florent Airport",
    "city": "Saumur/Saint-Florent",
    "country": "FR",
    "lat": 47.2568016052,
    "lon": -0.1151420027
  },
  "EVX": {
    "name": "Evreux-Fauville (BA 105) Air Base",
    "city": "Evreux/Fauville",
    "country": "FR",
    "lat": 49.0287017822,
    "lon": 1.2198599577
  },
  "XAN": {
    "name": "Alencon Valframbert Airport",
    "city": "Evreux",
    "country": "FR",
    "lat": 48.4474983215,
    "lon": 0.1091670021
  },
  "LEH": {
    "name": "Le Havre Octeville Airport",
    "city": "Le Havre/Octeville",
    "country": "FR",
    "lat": 49.5339012146,
    "lon": 0.0880559981
  },
  "XAB": {
    "name": "Abbeville-Buigny-Saint-Maclou Airport",
    "city": "Abbeville (Buigny/Saint-Maclou)",
    "country": "FR",
    "lat": 50.1435012817,
    "lon": 1.831889987
  },
  "XCR": {
    "name": "Chalons-Vatry Air Base",
    "city": "Chalons/Vatry",
    "country": "FR",
    "lat": 48.7761001587,
    "lon": 4.1844902039
  },
  "LSO": {
    "name": "Les Sables-d'Olonne Talmont Airport",
    "city": "Les Sables-d'Olonne",
    "country": "FR",
    "lat": 46.4768981934,
    "lon": -1.7227799892
  },
  "URO": {
    "name": "Rouen Airport",
    "city": "Rouen/Vallee de Seine",
    "country": "FR",
    "lat": 49.3842010498,
    "lon": 1.1748000383
  },
  "XBQ": {
    "name": "Blois-Le Breuil Airport",
    "city": "Blois/Le Breuil",
    "country": "FR",
    "lat": 47.6785011292,
    "lon": 1.2088400126
  },
  "QTJ": {
    "name": "Chartres Champhol Airport",
    "city": "Blois",
    "country": "FR",
    "lat": 48.4589004517,
    "lon": 1.5238900185
  },
  "TUF": {
    "name": "Tours-Val-de-Loire Airport",
    "city": "Tours/Val de Loire (Loire Valley)",
    "country": "FR",
    "lat": 47.4322013855,
    "lon": 0.7276059985
  },
  "CET": {
    "name": "Cholet Le Pontreau Airport",
    "city": "Cholet/Le Pontreau",
    "country": "FR",
    "lat": 47.0820999146,
    "lon": -0.8770639896
  },
  "LVA": {
    "name": "Laval-Entrammes Airport",
    "city": "Laval/Entrammes",
    "country": "FR",
    "lat": 48.0313987732,
    "lon": -0.7429860234
  },
  "ORE": {
    "name": "Orleans-Saint-Denis-de-l'Hotel Airport",
    "city": "Orleans/Saint-Denis-de-l'Hotel",
    "country": "FR",
    "lat": 47.896900177,
    "lon": 2.1633300781
  },
  "LBG": {
    "name": "Paris-Le Bourget Airport",
    "city": "Paris",
    "country": "FR",
    "lat": 48.9693984985,
    "lon": 2.4413900375
  },
  "CSF": {
    "name": "Creil Air Base",
    "city": "Creil",
    "country": "FR",
    "lat": 49.2535018921,
    "lon": 2.5191400051
  },
  "CDG": {
    "name": "Charles de Gaulle International Airport",
    "city": "Paris",
    "country": "FR",
    "lat": 49.0127983093,
    "lon": 2.5499999523
  },
  "TNF": {
    "name": "Toussus-le-Noble Airport",
    "city": "Toussus-le-Noble",
    "country": "FR",
    "lat": 48.7518997192,
    "lon": 2.1061899662
  },
  "ORY": {
    "name": "Paris-Orly Airport",
    "city": "Paris",
    "country": "FR",
    "lat": 48.7252998352,
    "lon": 2.3594400883
  },
  "POX": {
    "name": "Pontoise - Cormeilles-en-Vexin Airport",
    "city": "Pontoise",
    "country": "FR",
    "lat": 49.0965995789,
    "lon": 2.0408298969
  },
  "VIY": {
    "name": "Villacoublay-Velizy (BA 107) Air Base",
    "city": "Villacoublay/Velizy",
    "country": "FR",
    "lat": 48.7743988037,
    "lon": 2.2015399933
  },
  "QYR": {
    "name": "Troyes-Barberey Airport",
    "city": "Troyes/Barberey",
    "country": "FR",
    "lat": 48.322101593,
    "lon": 4.016699791
  },
  "NVS": {
    "name": "Nevers-Fourchambault Airport",
    "city": "Nevers/Fourchambault",
    "country": "FR",
    "lat": 47.0026016235,
    "lon": 3.1133298874
  },
  "XCB": {
    "name": "Cambrai-Epinoy (BA 103) Air Base",
    "city": "Cambrai/Epinoy",
    "country": "FR",
    "lat": 50.2218017578,
    "lon": 3.154239893
  },
  "XME": {
    "name": "Maubeuge-Elesmes Airport",
    "city": "Maubeuge/Elesmes",
    "country": "FR",
    "lat": 50.3105010986,
    "lon": 4.0331201553
  },
  "LIL": {
    "name": "Lille-Lesquin Airport",
    "city": "Lille/Lesquin",
    "country": "FR",
    "lat": 50.5619010925,
    "lon": 3.0894401073
  },
  "HZB": {
    "name": "Merville-Calonne Airport",
    "city": "Merville/Calonne",
    "country": "FR",
    "lat": 50.6184005737,
    "lon": 2.6422400475
  },
  "XCZ": {
    "name": "Charleville-Mezieres Airport",
    "city": "Charleville-Mezieres",
    "country": "FR",
    "lat": 49.7839012146,
    "lon": 4.6470799446
  },
  "XVO": {
    "name": "Vesoul-Frotey Airport",
    "city": "Vesoul/Frotey",
    "country": "FR",
    "lat": 47.6375999451,
    "lon": 6.2039198875
  },
  "BES": {
    "name": "Brest Bretagne Airport",
    "city": "Brest/Guipavas",
    "country": "FR",
    "lat": 48.4478988647,
    "lon": -4.4185400009
  },
  "CER": {
    "name": "Cherbourg-Maupertus Airport",
    "city": "Cherbourg/Maupertus",
    "country": "FR",
    "lat": 49.650100708,
    "lon": -1.4702800512
  },
  "DNR": {
    "name": "Dinard-Pleurtuit-Saint-Malo Airport",
    "city": "Dinard/Pleurtuit/Saint-Malo",
    "country": "FR",
    "lat": 48.5876998901,
    "lon": -2.0799601078
  },
  "LBY": {
    "name": "La Baule-Escoublac Airport",
    "city": "La Baule-Escoublac",
    "country": "FR",
    "lat": 47.2893981934,
    "lon": -2.3463900089
  },
  "GFR": {
    "name": "Granville Airport",
    "city": "Granville",
    "country": "FR",
    "lat": 48.8830986023,
    "lon": -1.5641700029
  },
  "DOL": {
    "name": "Deauville-Saint-Gatien Airport",
    "city": "Deauville",
    "country": "FR",
    "lat": 49.3652992249,
    "lon": 0.1543059945
  },
  "LRT": {
    "name": "Lorient South Brittany (Bretagne Sud) Airport",
    "city": "Lorient/Lann/Bihoue",
    "country": "FR",
    "lat": 47.7606010437,
    "lon": -3.4400000572
  },
  "EDM": {
    "name": "La Roche-sur-Yon Airport",
    "city": "La Roche-sur-Yon/Les Ajoncs",
    "country": "FR",
    "lat": 46.7019004822,
    "lon": -1.3786300421
  },
  "LDV": {
    "name": "Landivisiau Air Base",
    "city": "Landivisiau",
    "country": "FR",
    "lat": 48.5303001404,
    "lon": -4.1516399384
  },
  "CFR": {
    "name": "Caen-Carpiquet Airport",
    "city": "Caen/Carpiquet",
    "country": "FR",
    "lat": 49.1733016968,
    "lon": -0.4499999881
  },
  "LME": {
    "name": "Le Mans-Arnage Airport",
    "city": "Le Mans/Arnage",
    "country": "FR",
    "lat": 47.948600769,
    "lon": 0.2016669959
  },
  "RNS": {
    "name": "Rennes-Saint-Jacques Airport",
    "city": "Rennes/Saint-Jacques",
    "country": "FR",
    "lat": 48.0694999695,
    "lon": -1.7347899675
  },
  "LAI": {
    "name": "Lannion-Cote de Granit Airport",
    "city": "Lannion",
    "country": "FR",
    "lat": 48.7543983459,
    "lon": -3.4716598988
  },
  "UIP": {
    "name": "Quimper-Cornouaille Airport",
    "city": "Quimper/Pluguffan",
    "country": "FR",
    "lat": 47.9749984741,
    "lon": -4.1677899361
  },
  "NTE": {
    "name": "Nantes Atlantique Airport",
    "city": "Nantes",
    "country": "FR",
    "lat": 47.1531982422,
    "lon": -1.610730052
  },
  "SBK": {
    "name": "Saint-Brieuc-Armor Airport",
    "city": "Saint-Brieuc/Armor",
    "country": "FR",
    "lat": 48.5377998352,
    "lon": -2.8544399738
  },
  "MXN": {
    "name": "Morlaix-Ploujean Airport",
    "city": "Morlaix/Ploujean",
    "country": "FR",
    "lat": 48.6031990051,
    "lon": -3.8157799244
  },
  "VNE": {
    "name": "Vannes-Meucon Airport",
    "city": "Vannes/Meucon",
    "country": "FR",
    "lat": 47.7233009338,
    "lon": -2.7185599804
  },
  "SNR": {
    "name": "Saint-Nazaire-Montoir Airport",
    "city": "Saint-Nazaire/Montoir",
    "country": "FR",
    "lat": 47.3121986389,
    "lon": -2.1491799355
  },
  "QBQ": {
    "name": "Besancon Thise Airport",
    "city": "St Nazaire",
    "country": "FR",
    "lat": 47.2747001648,
    "lon": 6.0841698647
  },
  "BSL": {
    "name": "EuroAirport Basel-Mulhouse-Freiburg Airport",
    "city": "Bale/Mulhouse",
    "country": "FR",
    "lat": 47.5895996094,
    "lon": 7.5299100876
  },
  "DIJ": {
    "name": "Dijon-Bourgogne Airport",
    "city": "Dijon/Longvic",
    "country": "FR",
    "lat": 47.268901825,
    "lon": 5.0900001526
  },
  "MZM": {
    "name": "Metz-Frescaty (BA 128) Air Base",
    "city": "Metz/Frescaty",
    "country": "FR",
    "lat": 49.0717010498,
    "lon": 6.1316699982
  },
  "EPL": {
    "name": "Epinal-Mirecourt Airport",
    "city": "Epinal/Mirecourt",
    "country": "FR",
    "lat": 48.3250007629,
    "lon": 6.0699801445
  },
  "BVE": {
    "name": "BriveSouillac Airport",
    "city": "Nespouls",
    "country": "FR",
    "lat": 45.0396599,
    "lon": 1.4857120842
  },
  "XMF": {
    "name": "Montbeliard-Courcelles Airport",
    "city": "Montbeliard/Courcelles",
    "country": "FR",
    "lat": 47.4869995117,
    "lon": 6.7905402184
  },
  "ENC": {
    "name": "Nancy-Essey Airport",
    "city": "Nancy/Essey",
    "country": "FR",
    "lat": 48.6921005249,
    "lon": 6.2304601669
  },
  "BOR": {
    "name": "Fontaine Airport",
    "city": "Belfort",
    "country": "FR",
    "lat": 47.6556015015,
    "lon": 7.0108299255
  },
  "RHE": {
    "name": "Reims-Champagne (BA 112) Airport",
    "city": "Reims/Champagne",
    "country": "FR",
    "lat": 49.3100013733,
    "lon": 4.0500001907
  },
  "SXB": {
    "name": "Strasbourg Airport",
    "city": "Strasbourg",
    "country": "FR",
    "lat": 48.5382995605,
    "lon": 7.6282300949
  },
  "VTL": {
    "name": "Vittel Champ De Course Airport",
    "city": "Luxeuil",
    "country": "FR",
    "lat": 48.2238998413,
    "lon": 5.9352798462
  },
  "TLN": {
    "name": "Toulon-Hyeres Airport",
    "city": "Toulon/Hyeres/Le Palyvestre",
    "country": "FR",
    "lat": 43.0973014832,
    "lon": 6.1460299492
  },
  "FRJ": {
    "name": "Frejus Airport",
    "city": "Hyeres",
    "country": "FR",
    "lat": 43.4146995544,
    "lon": 6.7455601692
  },
  "FNI": {
    "name": "Nimes-Arles-Camargue Airport",
    "city": "Nimes/Garons",
    "country": "FR",
    "lat": 43.7574005127,
    "lon": 4.4163498878
  },
  "LTT": {
    "name": "La Mole Airport",
    "city": "La Mole",
    "country": "FR",
    "lat": 43.2053985596,
    "lon": 6.4819998741
  },
  "PYR": {
    "name": "Andravida Airport",
    "city": "Andravida",
    "country": "GR",
    "lat": 37.9207000732,
    "lon": 21.2926006317
  },
  "AGQ": {
    "name": "Agrinion Airport",
    "city": "Agrinion",
    "country": "GR",
    "lat": 38.6020011902,
    "lon": 21.3512001038
  },
  "AXD": {
    "name": "Dimokritos Airport",
    "city": "Alexandroupolis",
    "country": "GR",
    "lat": 40.8558998108,
    "lon": 25.9563007355
  },
  "HEW": {
    "name": "Athen Helenikon Airport",
    "city": "Athens",
    "country": "GR",
    "lat": 37.8932991028,
    "lon": 23.7261009216
  },
  "ATH": {
    "name": "Eleftherios Venizelos International Airport",
    "city": "Athens",
    "country": "GR",
    "lat": 37.9364013672,
    "lon": 23.9444999695
  },
  "VOL": {
    "name": "Nea Anchialos Airport",
    "city": "Nea Anchialos",
    "country": "GR",
    "lat": 39.2196006775,
    "lon": 22.7943000793
  },
  "JKH": {
    "name": "Chios Island National Airport",
    "city": "Chios Island",
    "country": "GR",
    "lat": 38.3432006836,
    "lon": 26.1406002045
  },
  "PKH": {
    "name": "Porto Cheli Airport",
    "city": "Porto Cheli",
    "country": "GR",
    "lat": 37.2975006104,
    "lon": 23.1478004456
  },
  "JIK": {
    "name": "Ikaria Airport",
    "city": "Ikaria Island",
    "country": "GR",
    "lat": 37.6827011108,
    "lon": 26.3470993042
  },
  "IOA": {
    "name": "Ioannina Airport",
    "city": "Ioannina",
    "country": "GR",
    "lat": 39.6963996887,
    "lon": 20.8225002289
  },
  "HER": {
    "name": "Heraklion International Nikos Kazantzakis Airport",
    "city": "Heraklion",
    "country": "GR",
    "lat": 35.3396987915,
    "lon": 25.1802997589
  },
  "KSO": {
    "name": "Kastoria National Airport",
    "city": "Kastoria",
    "country": "GR",
    "lat": 40.4463005066,
    "lon": 21.2821998596
  },
  "KIT": {
    "name": "Kithira Airport",
    "city": "Kithira Island",
    "country": "GR",
    "lat": 36.2742996216,
    "lon": 23.0170001984
  },
  "EFL": {
    "name": "Kefallinia Airport",
    "city": "Kefallinia Island",
    "country": "GR",
    "lat": 38.120098114,
    "lon": 20.5004997253
  },
  "KZS": {
    "name": "Kastelorizo Airport",
    "city": "Kastelorizo Island",
    "country": "GR",
    "lat": 36.1417007446,
    "lon": 29.5764007568
  },
  "KLX": {
    "name": "Kalamata Airport",
    "city": "Kalamata",
    "country": "GR",
    "lat": 37.0682983398,
    "lon": 22.0254993439
  },
  "KGS": {
    "name": "Kos Airport",
    "city": "Kos Island",
    "country": "GR",
    "lat": 36.7933006287,
    "lon": 27.0916996002
  },
  "AOK": {
    "name": "Karpathos Airport",
    "city": "Karpathos Island",
    "country": "GR",
    "lat": 35.4213981628,
    "lon": 27.1459999084
  },
  "CFU": {
    "name": "Ioannis Kapodistrias International Airport",
    "city": "Kerkyra Island",
    "country": "GR",
    "lat": 39.6018981934,
    "lon": 19.911699295
  },
  "KSJ": {
    "name": "Kasos Airport",
    "city": "Kasos Island",
    "country": "GR",
    "lat": 35.4213981628,
    "lon": 26.9099998474
  },
  "KVA": {
    "name": "Alexander the Great International Airport",
    "city": "Kavala",
    "country": "GR",
    "lat": 40.9132995605,
    "lon": 24.6191997528
  },
  "JKL": {
    "name": "Kalymnos Airport",
    "city": "Kalymnos Island",
    "country": "GR",
    "lat": 36.9632987976,
    "lon": 26.9405994415
  },
  "KZI": {
    "name": "Filippos Airport",
    "city": "Kozani",
    "country": "GR",
    "lat": 40.2860984802,
    "lon": 21.8407993317
  },
  "LRS": {
    "name": "Leros Airport",
    "city": "Leros Island",
    "country": "GR",
    "lat": 37.1848983765,
    "lon": 26.8003005981
  },
  "LXS": {
    "name": "Limnos Airport",
    "city": "Limnos Island",
    "country": "GR",
    "lat": 39.917098999,
    "lon": 25.2362995148
  },
  "LRA": {
    "name": "Larisa Airport",
    "city": "Larisa",
    "country": "GR",
    "lat": 39.6562825886,
    "lon": 22.3400008678
  },
  "JMK": {
    "name": "Mikonos Airport",
    "city": "Mykonos Island",
    "country": "GR",
    "lat": 37.4351005554,
    "lon": 25.3481006622
  },
  "MLO": {
    "name": "Milos Airport",
    "city": "Milos Island",
    "country": "GR",
    "lat": 36.6968994141,
    "lon": 24.4769001007
  },
  "MJT": {
    "name": "Mytilene International Airport",
    "city": "Mytilene",
    "country": "GR",
    "lat": 39.0567016602,
    "lon": 26.5983009338
  },
  "JNX": {
    "name": "Naxos Airport",
    "city": "Naxos Island",
    "country": "GR",
    "lat": 37.0811004639,
    "lon": 25.3680992126
  },
  "PAS": {
    "name": "Paros Airport",
    "city": "Paros Island",
    "country": "GR",
    "lat": 37.0102996826,
    "lon": 25.1280994415
  },
  "JTY": {
    "name": "Astypalaia Airport",
    "city": "Astypalaia Island",
    "country": "GR",
    "lat": 36.5798988342,
    "lon": 26.3757991791
  },
  "PVK": {
    "name": "Aktion National Airport",
    "city": "Preveza/Lefkada",
    "country": "GR",
    "lat": 38.9254989624,
    "lon": 20.7653007507
  },
  "RHO": {
    "name": "Diagoras Airport",
    "city": "Rodes Island",
    "country": "GR",
    "lat": 36.4053993225,
    "lon": 28.0862007141
  },
  "GPA": {
    "name": "Araxos Airport",
    "city": "Patras",
    "country": "GR",
    "lat": 38.1511001587,
    "lon": 21.4256000519
  },
  "CHQ": {
    "name": "Chania International Airport",
    "city": "Souda",
    "country": "GR",
    "lat": 35.5317001343,
    "lon": 24.1497001648
  },
  "JSI": {
    "name": "Skiathos Island National Airport",
    "city": "Skiathos",
    "country": "GR",
    "lat": 39.1771011353,
    "lon": 23.5037002563
  },
  "SMI": {
    "name": "Samos Airport",
    "city": "Samos Island",
    "country": "GR",
    "lat": 37.6899986267,
    "lon": 26.911699295
  },
  "JSY": {
    "name": "Syros Airport",
    "city": "Syros Island",
    "country": "GR",
    "lat": 37.4227981567,
    "lon": 24.9508991241
  },
  "SPJ": {
    "name": "Sparti Airport",
    "city": "Sparti",
    "country": "GR",
    "lat": 36.9738998413,
    "lon": 22.5263004303
  },
  "JTR": {
    "name": "Santorini Airport",
    "city": "Santorini Island",
    "country": "GR",
    "lat": 36.3992004395,
    "lon": 25.4792995453
  },
  "JSH": {
    "name": "Sitia Airport",
    "city": "Crete Island",
    "country": "GR",
    "lat": 35.2160987854,
    "lon": 26.1012992859
  },
  "SKU": {
    "name": "Skiros Airport",
    "city": "Skiros Island",
    "country": "GR",
    "lat": 38.9676017761,
    "lon": 24.4871997833
  },
  "SKG": {
    "name": "Thessaloniki Macedonia International Airport",
    "city": "Thessaloniki",
    "country": "GR",
    "lat": 40.5196990967,
    "lon": 22.9708995819
  },
  "ZTH": {
    "name": "Dionysios Solomos Airport",
    "city": "Zakynthos Island",
    "country": "GR",
    "lat": 37.7509002686,
    "lon": 20.8843002319
  },
  "BUD": {
    "name": "Budapest Ferenc Liszt International Airport",
    "city": "Budapest",
    "country": "HU",
    "lat": 47.4369010925,
    "lon": 19.2555999756
  },
  "DEB": {
    "name": "Debrecen International Airport",
    "city": "Debrecen",
    "country": "HU",
    "lat": 47.488899231,
    "lon": 21.6152992249
  },
  "MCQ": {
    "name": "Miskolc Airport",
    "city": "Miskolc",
    "country": "HU",
    "lat": 48.1369018555,
    "lon": 20.7914009094
  },
  "PEV": {
    "name": "Pecs-Pogany Airport",
    "city": "Pecs-Pogany",
    "country": "HU",
    "lat": 45.9908981323,
    "lon": 18.2409992218
  },
  "QGY": {
    "name": "Gyor-Per International Airport",
    "city": "Gyor",
    "country": "HU",
    "lat": 47.6244010925,
    "lon": 17.8136005402
  },
  "SOB": {
    "name": "Sarmellek International Airport",
    "city": "Sarmellek",
    "country": "HU",
    "lat": 46.6864013672,
    "lon": 17.1590995789
  },
  "TZR": {
    "name": "Taszar Air Base",
    "city": "Taszar",
    "country": "HU",
    "lat": 46.3931007385,
    "lon": 17.9174995422
  },
  "QZD": {
    "name": "Szeged Glider Airport",
    "city": "Szeged",
    "country": "HU",
    "lat": 46.2468986511,
    "lon": 20.0907993317
  },
  "QAQ": {
    "name": "L'Aquila / Preturo Airport",
    "city": "L'Aquila",
    "country": "IT",
    "lat": 42.379901886,
    "lon": 13.3092002869
  },
  "CRV": {
    "name": "Crotone Airport",
    "city": "Crotone",
    "country": "IT",
    "lat": 38.9972000122,
    "lon": 17.0802001953
  },
  "BRI": {
    "name": "Bari / Palese International Airport",
    "city": "Bari",
    "country": "IT",
    "lat": 41.1389007568,
    "lon": 16.7605991364
  },
  "FOG": {
    "name": "Foggia / Gino Lisa Airport",
    "city": "Foggia",
    "country": "IT",
    "lat": 41.4328994751,
    "lon": 15.5349998474
  },
  "TAR": {
    "name": "Taranto / Grottaglie Airport",
    "city": "Grottaglie",
    "country": "IT",
    "lat": 40.5175018311,
    "lon": 17.4032001495
  },
  "LCC": {
    "name": "Lecce Airport",
    "city": "",
    "country": "IT",
    "lat": 40.239200592,
    "lon": 18.1333007813
  },
  "PSR": {
    "name": "Pescara International Airport",
    "city": "Pescara",
    "country": "IT",
    "lat": 42.4317016602,
    "lon": 14.1810998917
  },
  "BDS": {
    "name": "Brindisi / Casale Airport",
    "city": "Brindisi",
    "country": "IT",
    "lat": 40.6576004028,
    "lon": 17.9470005035
  },
  "SUF": {
    "name": "Lamezia Terme Airport",
    "city": "Lamezia Terme",
    "country": "IT",
    "lat": 38.9053993225,
    "lon": 16.2423000336
  },
  "CIY": {
    "name": "Comiso Airport Vincenzo Magliocco",
    "city": "Comiso",
    "country": "IT",
    "lat": 36.9946010208,
    "lon": 14.6071815491
  },
  "CTA": {
    "name": "Catania / Fontanarossa Airport",
    "city": "Catania",
    "country": "IT",
    "lat": 37.4668006897,
    "lon": 15.0663995743
  },
  "LMP": {
    "name": "Lampedusa Airport",
    "city": "Lampedusa",
    "country": "IT",
    "lat": 35.4978981018,
    "lon": 12.6181001663
  },
  "PNL": {
    "name": "Pantelleria Airport",
    "city": "Pantelleria",
    "country": "IT",
    "lat": 36.8165016174,
    "lon": 11.9688997269
  },
  "PMO": {
    "name": "Palermo / Punta Raisi Airport",
    "city": "Palermo",
    "country": "IT",
    "lat": 38.1759986877,
    "lon": 13.0909996033
  },
  "REG": {
    "name": "Reggio Calabria Airport",
    "city": "Reggio Calabria",
    "country": "IT",
    "lat": 38.0712013245,
    "lon": 15.651599884
  },
  "TPS": {
    "name": "Trapani / Birgi Airport",
    "city": "Trapani",
    "country": "IT",
    "lat": 37.9113998413,
    "lon": 12.4879999161
  },
  "NSY": {
    "name": "Sigonella Airport",
    "city": "",
    "country": "IT",
    "lat": 37.4016990662,
    "lon": 14.9224004745
  },
  "BLX": {
    "name": "Belluno Airport",
    "city": "Belluno",
    "country": "IT",
    "lat": 46.1674995422,
    "lon": 12.2479000092
  },
  "CDF": {
    "name": "Cortina Airport",
    "city": "Cortina D'Ampezzo",
    "country": "IT",
    "lat": 46.5730018616,
    "lon": 12.1180000305
  },
  "RAN": {
    "name": "Ravenna Airport",
    "city": "Ravenna",
    "country": "IT",
    "lat": 44.3642997742,
    "lon": 12.2249002457
  },
  "AHO": {
    "name": "Alghero / Fertilia Airport",
    "city": "Alghero",
    "country": "IT",
    "lat": 40.6320991516,
    "lon": 8.290769577
  },
  "DCI": {
    "name": "Decimomannu Airport",
    "city": "Decimomannu",
    "country": "IT",
    "lat": 39.3541984558,
    "lon": 8.9724798203
  },
  "CAG": {
    "name": "Cagliari / Elmas Airport",
    "city": "Cagliari",
    "country": "IT",
    "lat": 39.251499176,
    "lon": 9.0542802811
  },
  "OLB": {
    "name": "Olbia / Costa Smeralda Airport",
    "city": "Olbia",
    "country": "IT",
    "lat": 40.8987007141,
    "lon": 9.5176296234
  },
  "FNU": {
    "name": "Oristano / Fenosu Airport",
    "city": "Oristano",
    "country": "IT",
    "lat": 39.8942985535,
    "lon": 8.6403999329
  },
  "TTB": {
    "name": "Tortoli' / Arbatax Airport",
    "city": "Arbatax",
    "country": "IT",
    "lat": 39.918800354,
    "lon": 9.6829795837
  },
  "QVA": {
    "name": "Varese / Venegono Airport",
    "city": "Varese",
    "country": "IT",
    "lat": 45.7421989441,
    "lon": 8.8882303238
  },
  "QMM": {
    "name": "Massa Cinquale Airport",
    "city": "Marina Di Massa",
    "country": "IT",
    "lat": 43.986000061,
    "lon": 10.1428003311
  },
  "MXP": {
    "name": "Malpensa International Airport",
    "city": "Milan",
    "country": "IT",
    "lat": 45.6305999756,
    "lon": 8.7281103134
  },
  "BGY": {
    "name": "Bergamo / Orio Al Serio Airport",
    "city": "Bergamo",
    "country": "IT",
    "lat": 45.6739006042,
    "lon": 9.7041702271
  },
  "TRN": {
    "name": "Torino / Caselle International Airport",
    "city": "Torino",
    "country": "IT",
    "lat": 45.2008018494,
    "lon": 7.6496300697
  },
  "ALL": {
    "name": "Villanova D'Albenga International Airport",
    "city": "Albenga",
    "country": "IT",
    "lat": 44.0505981445,
    "lon": 8.1274299622
  },
  "GOA": {
    "name": "Genova / Sestri Cristoforo Colombo Airport",
    "city": "Genova",
    "country": "IT",
    "lat": 44.4132995605,
    "lon": 8.8374996185
  },
  "LIN": {
    "name": "Linate Airport",
    "city": "Milan",
    "country": "IT",
    "lat": 45.445098877,
    "lon": 9.2767400742
  },
  "PMF": {
    "name": "Parma Airport",
    "city": "Parma",
    "country": "IT",
    "lat": 44.8245010376,
    "lon": 10.2964000702
  },
  "QPZ": {
    "name": "Piacenza Airport",
    "city": "Piacenza",
    "country": "IT",
    "lat": 44.9131011963,
    "lon": 9.7233295441
  },
  "AOT": {
    "name": "Aosta Airport",
    "city": "Aosta",
    "country": "IT",
    "lat": 45.7384986877,
    "lon": 7.3687200546
  },
  "CUF": {
    "name": "Cuneo / Levaldigi Airport",
    "city": "Cuneo",
    "country": "IT",
    "lat": 44.547000885,
    "lon": 7.6232199669
  },
  "AVB": {
    "name": "Aviano Air Base",
    "city": "Aviano",
    "country": "IT",
    "lat": 46.0318984985,
    "lon": 12.5965003967
  },
  "BZO": {
    "name": "Bolzano Airport",
    "city": "Bolzano",
    "country": "IT",
    "lat": 46.4602012634,
    "lon": 11.3263998032
  },
  "UDN": {
    "name": "Udine / Campoformido Air Base",
    "city": "Udine",
    "country": "IT",
    "lat": 46.0321998596,
    "lon": 13.1868000031
  },
  "BLQ": {
    "name": "Bologna / Borgo Panigale Airport",
    "city": "Bologna",
    "country": "IT",
    "lat": 44.5354003906,
    "lon": 11.2887001038
  },
  "TSF": {
    "name": "Treviso / Sant'Angelo Airport",
    "city": "Treviso",
    "country": "IT",
    "lat": 45.648399353,
    "lon": 12.1943998337
  },
  "FRL": {
    "name": "Forli Airport",
    "city": "Forli",
    "country": "IT",
    "lat": 44.1948013306,
    "lon": 12.0700998306
  },
  "VBS": {
    "name": "Brescia / Montichiari Airport",
    "city": "Brescia",
    "country": "IT",
    "lat": 45.4289016724,
    "lon": 10.3305997849
  },
  "TRS": {
    "name": "Trieste / Ronchi Dei Legionari",
    "city": "Trieste",
    "country": "IT",
    "lat": 45.8274993896,
    "lon": 13.4722003937
  },
  "RMI": {
    "name": "Rimini / Miramare - Federico Fellini International Airport",
    "city": "Rimini",
    "country": "IT",
    "lat": 44.0203018188,
    "lon": 12.611700058
  },
  "VIC": {
    "name": "Vicenza Airport",
    "city": "Vicenza",
    "country": "IT",
    "lat": 45.5733985901,
    "lon": 11.5295000076
  },
  "QPA": {
    "name": "Padova Airport",
    "city": "Padova",
    "country": "IT",
    "lat": 45.3958015442,
    "lon": 11.8479003906
  },
  "VRN": {
    "name": "Verona / Villafranca Airport",
    "city": "Verona",
    "country": "IT",
    "lat": 45.3956985474,
    "lon": 10.8885002136
  },
  "AOI": {
    "name": "Ancona / Falconara Airport",
    "city": "Ancona",
    "country": "IT",
    "lat": 43.6162986755,
    "lon": 13.3622999191
  },
  "VCE": {
    "name": "Venezia / Tessera -  Marco Polo Airport",
    "city": "Venezia",
    "country": "IT",
    "lat": 45.5052986145,
    "lon": 12.3519001007
  },
  "QZO": {
    "name": "Arezzo Airport",
    "city": "Arezzo",
    "country": "IT",
    "lat": 43.4558982849,
    "lon": 11.8470001221
  },
  "LCV": {
    "name": "Lucca / Tassignano Airport",
    "city": "Lucca",
    "country": "IT",
    "lat": 43.8282012939,
    "lon": 10.5781002045
  },
  "QRT": {
    "name": "Rieti Airport",
    "city": "Rieti",
    "country": "IT",
    "lat": 42.4272003174,
    "lon": 12.8516998291
  },
  "SAY": {
    "name": "Siena / Ampugnano Airport",
    "city": "Siena",
    "country": "IT",
    "lat": 43.2563018799,
    "lon": 11.2550001144
  },
  "CIA": {
    "name": "Ciampino Airport",
    "city": "Roma",
    "country": "IT",
    "lat": 41.7994003296,
    "lon": 12.5949001312
  },
  "FCO": {
    "name": "Leonardo Da Vinci (Fiumicino) International Airport",
    "city": "Rome",
    "country": "IT",
    "lat": 41.8045005798,
    "lon": 12.2508001328
  },
  "QFR": {
    "name": "Frosinone Military Airport",
    "city": "Frosinone",
    "country": "IT",
    "lat": 41.6464004517,
    "lon": 13.2997999191
  },
  "QSR": {
    "name": "Salerno / Pontecagnano Airport",
    "city": "Salerno",
    "country": "IT",
    "lat": 40.6203994751,
    "lon": 14.9112997055
  },
  "EBA": {
    "name": "Marina Di Campo Airport",
    "city": "Marina  Di Campo",
    "country": "IT",
    "lat": 42.7602996826,
    "lon": 10.23939991
  },
  "QLT": {
    "name": "Latina Airport",
    "city": "Latina",
    "country": "IT",
    "lat": 41.5424003601,
    "lon": 12.9090003967
  },
  "NAP": {
    "name": "Napoli / Capodichino International Airport",
    "city": "Napoli",
    "country": "IT",
    "lat": 40.8860015869,
    "lon": 14.2908000946
  },
  "PSA": {
    "name": "Pisa / San Giusto - Galileo Galilei International Airport",
    "city": "Pisa",
    "country": "IT",
    "lat": 43.6838989258,
    "lon": 10.3927001953
  },
  "FLR": {
    "name": "Firenze / Peretola Airport",
    "city": "Firenze",
    "country": "IT",
    "lat": 43.8100013733,
    "lon": 11.2051000595
  },
  "GRS": {
    "name": "Grosseto Airport",
    "city": "Grosetto",
    "country": "IT",
    "lat": 42.7597007751,
    "lon": 11.0719003677
  },
  "PEG": {
    "name": "Perugia / San Egidio Airport",
    "city": "Perugia",
    "country": "IT",
    "lat": 43.0959014893,
    "lon": 12.5131998062
  },
  "LJU": {
    "name": "Ljubljana Joze Pucnik Airport",
    "city": "Ljubljana",
    "country": "SI",
    "lat": 46.2237014771,
    "lon": 14.4575996399
  },
  "MBX": {
    "name": "Maribor Airport",
    "city": "",
    "country": "SI",
    "lat": 46.4799003601,
    "lon": 15.6861000061
  },
  "POW": {
    "name": "Portoroz Airport",
    "city": "Portoroz",
    "country": "SI",
    "lat": 45.473400116,
    "lon": 13.6149997711
  },
  "GTW": {
    "name": "Holesov Airport",
    "city": "Holesov",
    "country": "CZ",
    "lat": 49.3143997192,
    "lon": 17.5688991547
  },
  "UHE": {
    "name": "Kunovice Airport",
    "city": "Uherske Hradiste",
    "country": "CZ",
    "lat": 49.0293998718,
    "lon": 17.439699173
  },
  "KLV": {
    "name": "Karlovy Vary International Airport",
    "city": "Karlovy Vary",
    "country": "CZ",
    "lat": 50.202999115,
    "lon": 12.9149999619
  },
  "MKA": {
    "name": "Marianske Lazne Airport",
    "city": "Marianske Lazne",
    "country": "CZ",
    "lat": 49.9227981567,
    "lon": 12.7246999741
  },
  "OSR": {
    "name": "Ostrava Leos Janacek Airport",
    "city": "Ostrava",
    "country": "CZ",
    "lat": 49.6963005066,
    "lon": 18.1110992432
  },
  "OLO": {
    "name": "Olomouc Glider Airport",
    "city": "Olomouc",
    "country": "CZ",
    "lat": 49.5877990723,
    "lon": 17.2108001709
  },
  "PED": {
    "name": "Pardubice Airport",
    "city": "Pardubice",
    "country": "CZ",
    "lat": 50.0134010315,
    "lon": 15.7385997772
  },
  "PRV": {
    "name": "Prerov Air Base",
    "city": "Prerov",
    "country": "CZ",
    "lat": 49.4258003235,
    "lon": 17.4046993256
  },
  "PRG": {
    "name": "Vaclav Havel Airport",
    "city": "Prague",
    "country": "CZ",
    "lat": 50.1007995605,
    "lon": 14.2600002289
  },
  "BRQ": {
    "name": "Brno-Turany Airport",
    "city": "Brno",
    "country": "CZ",
    "lat": 49.1512985229,
    "lon": 16.6944007874
  },
  "VOD": {
    "name": "Vodochody Airport",
    "city": "Vodochoky",
    "country": "CZ",
    "lat": 50.2165985107,
    "lon": 14.3957996368
  },
  "ZBE": {
    "name": "Zabreh Ostrava Airport",
    "city": "Zabreh",
    "country": "CZ",
    "lat": 49.9282989502,
    "lon": 18.0783004761
  },
  "MLA": {
    "name": "Luqa Airport",
    "city": "Luqa",
    "country": "MT",
    "lat": 35.857498,
    "lon": 14.4775
  },
  "HOH": {
    "name": "Hohenems-Dornbirn Airport",
    "city": "Hohenems / Dornbirn",
    "country": "AT",
    "lat": 47.3849983215,
    "lon": 9.6999998093
  },
  "GRZ": {
    "name": "Graz Airport",
    "city": "Graz",
    "country": "AT",
    "lat": 46.9911003113,
    "lon": 15.4395999908
  },
  "INN": {
    "name": "Innsbruck Airport",
    "city": "Innsbruck",
    "country": "AT",
    "lat": 47.2602005005,
    "lon": 11.3439998627
  },
  "KLU": {
    "name": "Klagenfurt Airport",
    "city": "Klagenfurt am Worthersee",
    "country": "AT",
    "lat": 46.6425018311,
    "lon": 14.3376998901
  },
  "LNZ": {
    "name": "Linz Airport",
    "city": "Linz",
    "country": "AT",
    "lat": 48.2332000732,
    "lon": 14.1875
  },
  "SZG": {
    "name": "Salzburg Airport",
    "city": "Salzburg",
    "country": "AT",
    "lat": 47.7933006287,
    "lon": 13.0043001175
  },
  "VIE": {
    "name": "Vienna International Airport",
    "city": "Vienna",
    "country": "AT",
    "lat": 48.1102981567,
    "lon": 16.5697002411
  },
  "AVR": {
    "name": "Alverca Airport",
    "city": "Alverca",
    "country": "PT",
    "lat": 38.885362,
    "lon": -9.028311
  },
  "SMA": {
    "name": "Santa Maria Airport",
    "city": "Vila do Porto",
    "country": "PT",
    "lat": 36.9714012146,
    "lon": -25.1706008911
  },
  "BGC": {
    "name": "Braganca Airport",
    "city": "",
    "country": "PT",
    "lat": 41.85779953,
    "lon": -6.7071299553
  },
  "BYJ": {
    "name": "Beja International Airport",
    "city": "Beja",
    "country": "PT",
    "lat": 38.0788993835,
    "lon": -7.9324002266
  },
  "BGZ": {
    "name": "Braga Municipal Aerodrome",
    "city": "Braga",
    "country": "PT",
    "lat": 41.5871009827,
    "lon": -8.445139885
  },
  "CHV": {
    "name": "Chaves Airport",
    "city": "Chaves",
    "country": "PT",
    "lat": 41.7223243713,
    "lon": -7.4631500244
  },
  "CBP": {
    "name": "Coimbra Airport",
    "city": "",
    "country": "PT",
    "lat": 40.1571998596,
    "lon": -8.470000267
  },
  "CVU": {
    "name": "Corvo Airport",
    "city": "Corvo",
    "country": "PT",
    "lat": 39.6715011597,
    "lon": -31.1135997772
  },
  "CAT": {
    "name": "Cascais Airport",
    "city": "Cascais",
    "country": "PT",
    "lat": 38.7249984741,
    "lon": -9.3552303314
  },
  "FLW": {
    "name": "Flores Airport",
    "city": "Santa Cruz das Flores",
    "country": "PT",
    "lat": 39.4552993774,
    "lon": -31.1313991547
  },
  "FAO": {
    "name": "Faro Airport",
    "city": "Faro",
    "country": "PT",
    "lat": 37.0144004822,
    "lon": -7.9659099579
  },
  "GRW": {
    "name": "Graciosa Airport",
    "city": "Santa Cruz da Graciosa",
    "country": "PT",
    "lat": 39.0922012329,
    "lon": -28.029800415
  },
  "HOR": {
    "name": "Horta Airport",
    "city": "Horta",
    "country": "PT",
    "lat": 38.5199012756,
    "lon": -28.7159004211
  },
  "TER": {
    "name": "Lajes Field",
    "city": "Lajes",
    "country": "PT",
    "lat": 38.7617988586,
    "lon": -27.0907993317
  },
  "FNC": {
    "name": "Madeira Airport",
    "city": "Funchal",
    "country": "PT",
    "lat": 32.6978988647,
    "lon": -16.7744998932
  },
  "PDL": {
    "name": "Joao Paulo II Airport",
    "city": "Ponta Delgada",
    "country": "PT",
    "lat": 37.7411994934,
    "lon": -25.6979007721
  },
  "PIX": {
    "name": "Pico Airport",
    "city": "Pico Island",
    "country": "PT",
    "lat": 38.5542984009,
    "lon": -28.4412994385
  },
  "PRM": {
    "name": "Portimao Airport",
    "city": "",
    "country": "PT",
    "lat": 37.1492996216,
    "lon": -8.5839595795
  },
  "OPO": {
    "name": "Francisco de Sa Carneiro Airport",
    "city": "Porto",
    "country": "PT",
    "lat": 41.2481002808,
    "lon": -8.6813898087
  },
  "PXO": {
    "name": "Porto Santo Airport",
    "city": "Vila Baleira",
    "country": "PT",
    "lat": 33.0733985901,
    "lon": -16.3500003815
  },
  "LIS": {
    "name": "Lisbon Portela Airport",
    "city": "Lisbon",
    "country": "PT",
    "lat": 38.7812995911,
    "lon": -9.1359195709
  },
  "SIE": {
    "name": "Sines Airport",
    "city": "",
    "country": "PT",
    "lat": 37.9416923523,
    "lon": -8.8173007965
  },
  "SJZ": {
    "name": "Sao Jorge Airport",
    "city": "Velas",
    "country": "PT",
    "lat": 38.6655006409,
    "lon": -28.1758003235
  },
  "VRL": {
    "name": "Vila Real Airport",
    "city": "",
    "country": "PT",
    "lat": 41.2742996216,
    "lon": -7.7204699516
  },
  "VSE": {
    "name": "Viseu Airport",
    "city": "",
    "country": "PT",
    "lat": 40.7254981995,
    "lon": -7.8889899254
  },
  "BNX": {
    "name": "Banja Luka International Airport",
    "city": "Banja Luka",
    "country": "BA",
    "lat": 44.9413986206,
    "lon": 17.2975006104
  },
  "OMO": {
    "name": "Mostar International Airport",
    "city": "Mostar",
    "country": "BA",
    "lat": 43.2829017639,
    "lon": 17.8458995819
  },
  "SJJ": {
    "name": "Sarajevo International Airport",
    "city": "Sarajevo",
    "country": "BA",
    "lat": 43.8246002197,
    "lon": 18.3314990997
  },
  "TZL": {
    "name": "Tuzla International Airport",
    "city": "Tuzla",
    "country": "BA",
    "lat": 44.4586982727,
    "lon": 18.7248001099
  },
  "ARW": {
    "name": "Arad International Airport",
    "city": "Arad",
    "country": "RO",
    "lat": 46.1766014099,
    "lon": 21.2619991302
  },
  "BCM": {
    "name": "Bacau Airport",
    "city": "Bacau",
    "country": "RO",
    "lat": 46.521900177,
    "lon": 26.9102993011
  },
  "BAY": {
    "name": "Tautii Magheraus Airport",
    "city": "Baia Mare",
    "country": "RO",
    "lat": 47.6584014893,
    "lon": 23.4699993134
  },
  "BBU": {
    "name": "Baneasa International Airport",
    "city": "Bucharest",
    "country": "RO",
    "lat": 44.503200531,
    "lon": 26.1021003723
  },
  "GHV": {
    "name": "Brasov Airport",
    "city": "Brasov",
    "country": "RO",
    "lat": 45.70622,
    "lon": 25.52352
  },
  "CND": {
    "name": "Mihail Kogalniceanu International Airport",
    "city": "Constanta",
    "country": "RO",
    "lat": 44.3622016907,
    "lon": 28.4883003235
  },
  "CLJ": {
    "name": "Cluj-Napoca International Airport",
    "city": "Cluj-Napoca",
    "country": "RO",
    "lat": 46.7851982117,
    "lon": 23.6861991882
  },
  "CSB": {
    "name": "Caransebes Airport",
    "city": "Caransebes",
    "country": "RO",
    "lat": 45.4199981689,
    "lon": 22.2532997131
  },
  "CRA": {
    "name": "Craiova Airport",
    "city": "Craiova",
    "country": "RO",
    "lat": 44.3180999756,
    "lon": 23.8885993958
  },
  "IAS": {
    "name": "Iasi Airport",
    "city": "Iasi",
    "country": "RO",
    "lat": 47.1785011292,
    "lon": 27.6205997467
  },
  "OMR": {
    "name": "Oradea International Airport",
    "city": "Oradea",
    "country": "RO",
    "lat": 47.0252990723,
    "lon": 21.9025001526
  },
  "OTP": {
    "name": "Henri Coanda International Airport",
    "city": "Bucharest",
    "country": "RO",
    "lat": 44.5722007751,
    "lon": 26.1021995544
  },
  "SBZ": {
    "name": "Sibiu International Airport",
    "city": "Sibiu",
    "country": "RO",
    "lat": 45.7855987549,
    "lon": 24.091299057
  },
  "SUJ": {
    "name": "Satu Mare Airport",
    "city": "Satu Mare",
    "country": "RO",
    "lat": 47.7033004761,
    "lon": 22.8857002258
  },
  "SCV": {
    "name": "Suceava Stefan cel Mare Airport",
    "city": "Suceava",
    "country": "RO",
    "lat": 47.6875,
    "lon": 26.3540992737
  },
  "TCE": {
    "name": "Tulcea Airport",
    "city": "Tulcea",
    "country": "RO",
    "lat": 45.0625,
    "lon": 28.7143001556
  },
  "TGM": {
    "name": "Transilvania Targu Mures International Airport",
    "city": "Targu Mures",
    "country": "RO",
    "lat": 46.4677009583,
    "lon": 24.4125003815
  },
  "TSR": {
    "name": "Timisoara Traian Vuia Airport",
    "city": "Timisoara",
    "country": "RO",
    "lat": 45.8098983765,
    "lon": 21.3379001617
  },
  "GVA": {
    "name": "Geneva Cointrin International Airport",
    "city": "Geneva",
    "country": "CH",
    "lat": 46.2380981445,
    "lon": 6.1089501381
  },
  "QLS": {
    "name": "Lausanne-la Blecherette Airport",
    "city": "Lausanne",
    "country": "CH",
    "lat": 46.54529953,
    "lon": 6.6166701317
  },
  "QNC": {
    "name": "Neuchatel Airport",
    "city": "",
    "country": "CH",
    "lat": 46.9575004578,
    "lon": 6.8647198677
  },
  "SIR": {
    "name": "Sion Airport",
    "city": "Sion",
    "country": "CH",
    "lat": 46.2196006775,
    "lon": 7.3267598152
  },
  "EML": {
    "name": "Emmen Airport",
    "city": "",
    "country": "CH",
    "lat": 47.0923995972,
    "lon": 8.3051204681
  },
  "ZIN": {
    "name": "Interlaken Air Base",
    "city": "",
    "country": "CH",
    "lat": 46.6766014099,
    "lon": 7.8790798187
  },
  "VIP": {
    "name": "Payerne Airport",
    "city": "Payerne",
    "country": "CH",
    "lat": 46.84674595816998,
    "lon": 6.920598655936771
  },
  "LUG": {
    "name": "Lugano Airport",
    "city": "Lugano",
    "country": "CH",
    "lat": 46.0042991638,
    "lon": 8.9105796814
  },
  "BRN": {
    "name": "Bern Belp Airport",
    "city": "Bern",
    "country": "CH",
    "lat": 46.914100647,
    "lon": 7.4971499443
  },
  "BXO": {
    "name": "Buochs Airport",
    "city": "Buochs",
    "country": "CH",
    "lat": 46.9744444444,
    "lon": 8.3969444444
  },
  "ZHI": {
    "name": "Grenchen Airport",
    "city": "",
    "country": "CH",
    "lat": 47.1815986633,
    "lon": 7.4171900749
  },
  "ZRH": {
    "name": "Zurich Airport",
    "city": "Zurich",
    "country": "CH",
    "lat": 47.4646987915,
    "lon": 8.5491695404
  },
  "ZJI": {
    "name": "Locarno Airport",
    "city": "",
    "country": "CH",
    "lat": 46.1608009338,
    "lon": 8.8786096573
  },
  "MLH": {
    "name": "EuroAirport Basel-Mulhouse-Freiburg Airport",
    "city": "Bale/Mulhouse",
    "country": "CH",
    "lat": 47.5895996094,
    "lon": 7.5299100876
  },
  "ACH": {
    "name": "St Gallen Altenrhein Airport",
    "city": "Altenrhein",
    "country": "CH",
    "lat": 47.4850006104,
    "lon": 9.5607700348
  },
  "SMV": {
    "name": "Samedan Airport",
    "city": "",
    "country": "CH",
    "lat": 46.5340995789,
    "lon": 9.8841104507
  },
  "ESB": {
    "name": "Esenboga International Airport",
    "city": "Ankara",
    "country": "TR",
    "lat": 40.1281013489,
    "lon": 32.995098114
  },
  "ANK": {
    "name": "Etimesgut Air Base",
    "city": "Ankara",
    "country": "TR",
    "lat": 39.949798584,
    "lon": 32.6885986328
  },
  "ADA": {
    "name": "Adana Airport",
    "city": "Adana",
    "country": "TR",
    "lat": 36.9822006226,
    "lon": 35.2803993225
  },
  "UAB": {
    "name": "Incirlik Air Base",
    "city": "Adana",
    "country": "TR",
    "lat": 37.0021018982,
    "lon": 35.4258995056
  },
  "AFY": {
    "name": "Afyon Airport",
    "city": "Afyonkarahisar",
    "country": "TR",
    "lat": 38.726398468,
    "lon": 30.6011009216
  },
  "AYT": {
    "name": "Antalya International Airport",
    "city": "Antalya",
    "country": "TR",
    "lat": 36.8987007141,
    "lon": 30.8005008698
  },
  "GZT": {
    "name": "Gaziantep International Airport",
    "city": "Gaziantep",
    "country": "TR",
    "lat": 36.9472007751,
    "lon": 37.4786987305
  },
  "KFS": {
    "name": "Kastamonu Airport",
    "city": "Kastamonu",
    "country": "TR",
    "lat": 41.314201355,
    "lon": 33.7957992554
  },
  "KYA": {
    "name": "Konya Airport",
    "city": "Konya",
    "country": "TR",
    "lat": 37.9790000916,
    "lon": 32.5619010925
  },
  "MZH": {
    "name": "Amasya Merzifon Airport",
    "city": "Amasya",
    "country": "TR",
    "lat": 40.8293991089,
    "lon": 35.5219993591
  },
  "SSX": {
    "name": "Samsun Samair Airport",
    "city": "Samsun",
    "country": "TR",
    "lat": 41.2786445618,
    "lon": 36.3051795959
  },
  "VAS": {
    "name": "Sivas Airport",
    "city": "Sivas",
    "country": "TR",
    "lat": 39.8138008118,
    "lon": 36.9034996033
  },
  "ONQ": {
    "name": "Zonguldak Airport",
    "city": "Zonguldak",
    "country": "TR",
    "lat": 41.506401062,
    "lon": 32.0886001587
  },
  "MLX": {
    "name": "Malatya Erhac Airport",
    "city": "Malatya",
    "country": "TR",
    "lat": 38.4352989197,
    "lon": 38.0909996033
  },
  "ASR": {
    "name": "Kayseri Erkilet Airport",
    "city": "Kayseri",
    "country": "TR",
    "lat": 38.770401001,
    "lon": 35.4953994751
  },
  "TJK": {
    "name": "Tokat Airport",
    "city": "Tokat",
    "country": "TR",
    "lat": 40.3074302673,
    "lon": 36.3674087524
  },
  "DNZ": {
    "name": "Cardak Airport",
    "city": "Denizli",
    "country": "TR",
    "lat": 37.7855987549,
    "lon": 29.7012996674
  },
  "NAV": {
    "name": "Nevsehir Kapadokya International Airport",
    "city": "Nevsehir",
    "country": "TR",
    "lat": 38.771900177,
    "lon": 34.5345001221
  },
  "ISL": {
    "name": "Ataturk International Airport",
    "city": "Istanbul",
    "country": "TR",
    "lat": 40.9768981934,
    "lon": 28.8145999908
  },
  "CII": {
    "name": "Cildir Airport",
    "city": "Aydin",
    "country": "TR",
    "lat": 37.8149986267,
    "lon": 27.8952999115
  },
  "BZI": {
    "name": "Balikesir Merkez Airport",
    "city": "Balikesir",
    "country": "TR",
    "lat": 39.6193008423,
    "lon": 27.9260005951
  },
  "BDM": {
    "name": "Bandirma Airport",
    "city": "Bandirma",
    "country": "TR",
    "lat": 40.3180007935,
    "lon": 27.9776992798
  },
  "CKZ": {
    "name": "Canakkale Airport",
    "city": "Canakkale",
    "country": "TR",
    "lat": 40.1376991272,
    "lon": 26.4267997742
  },
  "ESK": {
    "name": "Eskisehir Air Base",
    "city": "Eskisehir",
    "country": "TR",
    "lat": 39.7840995789,
    "lon": 30.5820999146
  },
  "ADB": {
    "name": "Adnan Menderes International Airport",
    "city": "Izmir",
    "country": "TR",
    "lat": 38.2924003601,
    "lon": 27.156999588
  },
  "IGL": {
    "name": "Cigli Airport",
    "city": "Izmir",
    "country": "TR",
    "lat": 38.5130004883,
    "lon": 27.010099411
  },
  "USQ": {
    "name": "Usak Airport",
    "city": "Usak",
    "country": "TR",
    "lat": 38.6814994812,
    "lon": 29.4717006683
  },
  "KCO": {
    "name": "Cengiz Topel Airport",
    "city": "",
    "country": "TR",
    "lat": 40.7350006104,
    "lon": 30.0832996368
  },
  "YEI": {
    "name": "Bursa Yenisehir Airport",
    "city": "Bursa",
    "country": "TR",
    "lat": 40.2551994324,
    "lon": 29.5625991821
  },
  "DLM": {
    "name": "Dalaman International Airport",
    "city": "Dalaman",
    "country": "TR",
    "lat": 36.7131004333,
    "lon": 28.7924995422
  },
  "TEQ": {
    "name": "Tekirdag Corlu Airport",
    "city": "Corlu",
    "country": "TR",
    "lat": 41.1381988525,
    "lon": 27.9190998077
  },
  "BXN": {
    "name": "Imsik Airport",
    "city": "Bodrum",
    "country": "TR",
    "lat": 37.1400985718,
    "lon": 27.6697006226
  },
  "AOE": {
    "name": "Anadolu University Airport",
    "city": "Eskisehir",
    "country": "TR",
    "lat": 39.8098983765,
    "lon": 30.5193996429
  },
  "KZR": {
    "name": "Zafer Airport",
    "city": "Altintas",
    "country": "TR",
    "lat": 39.1090247,
    "lon": 30.1371297052
  },
  "EZS": {
    "name": "Elazig Airport",
    "city": "Elazig",
    "country": "TR",
    "lat": 38.6068992615,
    "lon": 39.2914009094
  },
  "OGU": {
    "name": "OrduGiresun Airport",
    "city": "Ordu",
    "country": "TR",
    "lat": 40.966667,
    "lon": 38.08
  },
  "DIY": {
    "name": "Diyarbakir Airport",
    "city": "Diyarbakir",
    "country": "TR",
    "lat": 37.893901825,
    "lon": 40.2010002136
  },
  "ERC": {
    "name": "Erzincan Airport",
    "city": "Erzincan",
    "country": "TR",
    "lat": 39.7102012634,
    "lon": 39.5270004272
  },
  "ERZ": {
    "name": "Erzurum International Airport",
    "city": "Erzurum",
    "country": "TR",
    "lat": 39.9565010071,
    "lon": 41.1702003479
  },
  "KSY": {
    "name": "Kars Airport",
    "city": "Kars",
    "country": "TR",
    "lat": 40.5621986389,
    "lon": 43.1150016785
  },
  "TZX": {
    "name": "Trabzon International Airport",
    "city": "Trabzon",
    "country": "TR",
    "lat": 40.995098114,
    "lon": 39.7896995544
  },
  "SFQ": {
    "name": "Sanliurfa Airport",
    "city": "Sanliurfa",
    "country": "TR",
    "lat": 37.0942993164,
    "lon": 38.8470993042
  },
  "VAN": {
    "name": "Van Ferit Melen Airport",
    "city": "Van",
    "country": "TR",
    "lat": 38.4682006836,
    "lon": 43.3322982788
  },
  "BAL": {
    "name": "Batman Airport",
    "city": "Batman",
    "country": "TR",
    "lat": 37.9290008545,
    "lon": 41.1166000366
  },
  "MSR": {
    "name": "Mus Airport",
    "city": "Mus",
    "country": "TR",
    "lat": 38.7477989197,
    "lon": 41.6612014771
  },
  "SXZ": {
    "name": "Siirt Airport",
    "city": "Siirt",
    "country": "TR",
    "lat": 37.9789009094,
    "lon": 41.8404006958
  },
  "NOP": {
    "name": "Sinop Airport",
    "city": "Sinop",
    "country": "TR",
    "lat": 42.0158004761,
    "lon": 35.0663986206
  },
  "KCM": {
    "name": "Kahramanmaras Airport",
    "city": "Kahramanmaras",
    "country": "TR",
    "lat": 37.5388259888,
    "lon": 36.9535217285
  },
  "AJI": {
    "name": "Agri Airport",
    "city": "Agri",
    "country": "TR",
    "lat": 39.6545410156,
    "lon": 43.0259780884
  },
  "ADF": {
    "name": "Adiyaman Airport",
    "city": "Adiyaman",
    "country": "TR",
    "lat": 37.7313995361,
    "lon": 38.4688987732
  },
  "MQM": {
    "name": "Mardin Airport",
    "city": "Mardin",
    "country": "TR",
    "lat": 37.2233009338,
    "lon": 40.6316986084
  },
  "GNY": {
    "name": "Sanliurfa GAP Airport",
    "city": "Sanliurfa",
    "country": "TR",
    "lat": 37.4456634521,
    "lon": 38.8955917358
  },
  "IGD": {
    "name": "Igdir Airport",
    "city": "Igdir",
    "country": "TR",
    "lat": 39.9766273499,
    "lon": 43.8766479492
  },
  "BGG": {
    "name": "Bingl Airport",
    "city": "Bingl",
    "country": "TR",
    "lat": 38.861111,
    "lon": 40.5925
  },
  "YKO": {
    "name": "Hakkari Yuksekova Airport",
    "city": "Yuksekova",
    "country": "TR",
    "lat": 37.551667,
    "lon": 44.233611
  },
  "HTY": {
    "name": "Hatay Airport",
    "city": "Hatay",
    "country": "TR",
    "lat": 36.36277771,
    "lon": 36.2822227478
  },
  "COV": {
    "name": "ukurova International Airport",
    "city": "Tarsus",
    "country": "TR",
    "lat": 36.892916,
    "lon": 35.071971
  },
  "ISE": {
    "name": "Suleyman Demirel International Airport",
    "city": "Isparta",
    "country": "TR",
    "lat": 37.8554000854,
    "lon": 30.3684005737
  },
  "EDO": {
    "name": "Balikesir Korfez Airport",
    "city": "Edremit",
    "country": "TR",
    "lat": 39.554599762,
    "lon": 27.0137996674
  },
  "BJV": {
    "name": "Milas Bodrum International Airport",
    "city": "Bodrum",
    "country": "TR",
    "lat": 37.2505989075,
    "lon": 27.6643009186
  },
  "GZP": {
    "name": "Gazipasa Airport",
    "city": "Gazipasa",
    "country": "TR",
    "lat": 36.2992172241,
    "lon": 32.3005981445
  },
  "SZF": {
    "name": "Samsun Carsamba Airport",
    "city": "Samsun",
    "country": "TR",
    "lat": 41.2545013428,
    "lon": 36.5671005249
  },
  "SAW": {
    "name": "Sabiha Gokcen International Airport",
    "city": "Istanbul",
    "country": "TR",
    "lat": 40.898601532,
    "lon": 29.3092002869
  },
  "GKD": {
    "name": "Imroz Airport",
    "city": "Gokceada",
    "country": "TR",
    "lat": 40.204498291,
    "lon": 25.8833007812
  },
  "IST": {
    "name": "Istanbul Airport",
    "city": "Arnavutkoy",
    "country": "TR",
    "lat": 41.262222,
    "lon": 28.727778
  },
  "RZV": {
    "name": "RizeArtvin Airport",
    "city": "",
    "country": "TR",
    "lat": 41.169167,
    "lon": 40.828889
  },
  "BZY": {
    "name": "Balti International Airport",
    "city": "Strymba",
    "country": "MD",
    "lat": 47.8381004333,
    "lon": 27.7814998627
  },
  "RMO": {
    "name": "Chisinau International Airport",
    "city": "Chisinau",
    "country": "MD",
    "lat": 46.9277000427,
    "lon": 28.9309997559
  },
  "OHD": {
    "name": "Ohrid St. Paul the Apostle Airport",
    "city": "Ohrid",
    "country": "MK",
    "lat": 41.1800003052,
    "lon": 20.7423000336
  },
  "SKP": {
    "name": "Skopje Alexander the Great Airport",
    "city": "Skopje",
    "country": "MK",
    "lat": 41.9616012573,
    "lon": 21.6214008331
  },
  "BEG": {
    "name": "Belgrade Nikola Tesla Airport",
    "city": "Belgrad",
    "country": "RS",
    "lat": 44.8184013367,
    "lon": 20.3090991974
  },
  "IVG": {
    "name": "Berane Airport",
    "city": "Berane",
    "country": "ME",
    "lat": 42.8390007019,
    "lon": 19.8619995117
  },
  "BJY": {
    "name": "Batajnica Air Base",
    "city": "Batajnica",
    "country": "RS",
    "lat": 44.935299,
    "lon": 20.2575
  },
  "INI": {
    "name": "Nis Airport",
    "city": "Nis",
    "country": "RS",
    "lat": 43.337299,
    "lon": 21.853701
  },
  "QND": {
    "name": "Cenej Airport",
    "city": "Novi Sad",
    "country": "RS",
    "lat": 45.385799,
    "lon": 19.839199
  },
  "TGD": {
    "name": "Podgorica Airport",
    "city": "Podgorica",
    "country": "ME",
    "lat": 42.3594017029,
    "lon": 19.2518997192
  },
  "TIV": {
    "name": "Tivat Airport",
    "city": "Tivat",
    "country": "ME",
    "lat": 42.4047012329,
    "lon": 18.7233009338
  },
  "UZC": {
    "name": "Ponikve Airport",
    "city": "Uzice",
    "country": "RS",
    "lat": 43.898899,
    "lon": 19.697701
  },
  "QWV": {
    "name": "Divci Airport",
    "city": "Valjevo",
    "country": "RS",
    "lat": 44.2978166667,
    "lon": 20.0219111111
  },
  "ZRE": {
    "name": "Zrenjanin Airport",
    "city": "Zrenjanin",
    "country": "RS",
    "lat": 45.339756,
    "lon": 20.454078
  },
  "BTS": {
    "name": "M. R. Stefanik Airport",
    "city": "Bratislava",
    "country": "SK",
    "lat": 48.1702003479,
    "lon": 17.2126998901
  },
  "KSC": {
    "name": "Kosice Airport",
    "city": "Kosice",
    "country": "SK",
    "lat": 48.6631011963,
    "lon": 21.2411003113
  },
  "LUE": {
    "name": "Lucenec Airport",
    "city": "Lucenec",
    "country": "SK",
    "lat": 48.3394012451,
    "lon": 19.7357997894
  },
  "PZY": {
    "name": "Piestany Airport",
    "city": "Piestany",
    "country": "SK",
    "lat": 48.6251983643,
    "lon": 17.8283996582
  },
  "POV": {
    "name": "Presov Air Base",
    "city": "Presov",
    "country": "SK",
    "lat": 49.0297012329,
    "lon": 21.3155994415
  },
  "SLD": {
    "name": "Sliac Airport",
    "city": "Sliac",
    "country": "SK",
    "lat": 48.6377983093,
    "lon": 19.1340999603
  },
  "TAT": {
    "name": "Poprad-Tatry Airport",
    "city": "Poprad",
    "country": "SK",
    "lat": 49.073600769,
    "lon": 20.2411003113
  },
  "ILZ": {
    "name": "Zilina Airport",
    "city": "Zilina",
    "country": "SK",
    "lat": 49.2314987183,
    "lon": 18.6135005951
  },
  "UKG": {
    "name": "Ust-Kuyga Airport",
    "city": "Ust-Kuyga",
    "country": "RU",
    "lat": 70.0110015869,
    "lon": 135.6450042725
  },
  "TLK": {
    "name": "Talakan Airport",
    "city": "",
    "country": "RU",
    "lat": 59.876389,
    "lon": 111.044444
  },
  "ADH": {
    "name": "Aldan Airport",
    "city": "Aldan",
    "country": "RU",
    "lat": 58.6027984619,
    "lon": 125.408996582
  },
  "YKS": {
    "name": "Yakutsk Airport",
    "city": "Yakutsk",
    "country": "RU",
    "lat": 62.0932998657,
    "lon": 129.7709960938
  },
  "NER": {
    "name": "Chulman Airport",
    "city": "Chulman",
    "country": "RU",
    "lat": 56.913898468,
    "lon": 124.9140014648
  },
  "MQJ": {
    "name": "Moma Airport",
    "city": "Honuu",
    "country": "RU",
    "lat": 66.4508590698,
    "lon": 143.2615509033
  },
  "KDY": {
    "name": "Tyopliy Klyuch Airport",
    "city": "Tyopliy Klyuch",
    "country": "RU",
    "lat": 62.7890014648,
    "lon": 136.8549957275
  },
  "GYG": {
    "name": "Magan Airport",
    "city": "Magan",
    "country": "RU",
    "lat": 62.1034812927,
    "lon": 129.5452880859
  },
  "OLZ": {
    "name": "Olyokminsk Airport",
    "city": "Olyokminsk",
    "country": "RU",
    "lat": 60.3974990845,
    "lon": 120.471000671
  },
  "USR": {
    "name": "Ust-Nera Airport",
    "city": "Ust-Nera",
    "country": "RU",
    "lat": 64.5500030518,
    "lon": 143.1150054932
  },
  "UMS": {
    "name": "Ust-Maya Airport",
    "city": "Ust-Maya",
    "country": "RU",
    "lat": 60.3569984436,
    "lon": 134.4349975586
  },
  "VHV": {
    "name": "Verkhnevilyuisk Airport",
    "city": "Verkhnevilyuisk",
    "country": "RU",
    "lat": 63.4580574036,
    "lon": 120.2691650391
  },
  "NYR": {
    "name": "Nyurba Airport",
    "city": "Nyurba",
    "country": "RU",
    "lat": 63.2949981689,
    "lon": 118.3369979858
  },
  "SUY": {
    "name": "Suntar Airport",
    "city": "Suntar",
    "country": "RU",
    "lat": 62.1850013733,
    "lon": 117.6350021362
  },
  "VYI": {
    "name": "Vilyuisk Airport",
    "city": "Vilyuisk",
    "country": "RU",
    "lat": 63.7566680908,
    "lon": 121.6933364868
  },
  "ULK": {
    "name": "Lensk Airport",
    "city": "Lensk",
    "country": "RU",
    "lat": 60.7206001282,
    "lon": 114.825996399
  },
  "ONK": {
    "name": "Olenyok Airport",
    "city": "Olenyok",
    "country": "RU",
    "lat": 68.5149993896,
    "lon": 112.4800033569
  },
  "PYJ": {
    "name": "Polyarny Airport",
    "city": "Yakutia",
    "country": "RU",
    "lat": 66.4003982544,
    "lon": 112.029998779
  },
  "MJZ": {
    "name": "Mirny Airport",
    "city": "Mirny",
    "country": "RU",
    "lat": 62.5346984863,
    "lon": 114.0390014648
  },
  "SYS": {
    "name": "Saskylakh Airport",
    "city": "Saskylakh",
    "country": "RU",
    "lat": 71.9279022217,
    "lon": 114.0800018311
  },
  "BGN": {
    "name": "Belaya Gora Airport",
    "city": "Belaya Gora",
    "country": "RU",
    "lat": 68.556944,
    "lon": 146.234722
  },
  "CKH": {
    "name": "Chokurdakh Airport",
    "city": "Chokurdah",
    "country": "RU",
    "lat": 70.6231002808,
    "lon": 147.9019927979
  },
  "CYX": {
    "name": "Cherskiy Airport",
    "city": "Cherskiy",
    "country": "RU",
    "lat": 68.7406005859,
    "lon": 161.3379974365
  },
  "IKS": {
    "name": "Tiksi Airport",
    "city": "Tiksi",
    "country": "RU",
    "lat": 71.6977005005,
    "lon": 128.9029998779
  },
  "ZKP": {
    "name": "Zyryanka Airport",
    "city": "Zyryanka",
    "country": "RU",
    "lat": 65.7367019653,
    "lon": 150.705001831
  },
  "ZIX": {
    "name": "Zhigansk Airport",
    "city": "Zhigansk",
    "country": "RU",
    "lat": 66.7965011597,
    "lon": 123.361000061
  },
  "BQS": {
    "name": "Ignatyevo Airport",
    "city": "Blagoveschensk",
    "country": "RU",
    "lat": 50.4253997803,
    "lon": 127.4120025635
  },
  "GDG": {
    "name": "Magdagachi Airport",
    "city": "Magdagachi",
    "country": "RU",
    "lat": 53.4733009338,
    "lon": 125.7949981689
  },
  "TYD": {
    "name": "Tynda Airport",
    "city": "Tynda",
    "country": "RU",
    "lat": 55.284198761,
    "lon": 124.7789993286
  },
  "KHV": {
    "name": "Khabarovsk-Novy Airport",
    "city": "Khabarovsk",
    "country": "RU",
    "lat": 48.5279998779,
    "lon": 135.18800354
  },
  "KXK": {
    "name": "Komsomolsk-on-Amur Airport",
    "city": "Komsomolsk-on-Amur",
    "country": "RU",
    "lat": 50.4090003967,
    "lon": 136.9340057373
  },
  "GVN": {
    "name": "Maygatka Airport.",
    "city": "Sovetskaya Gavan",
    "country": "RU",
    "lat": 48.9269981384,
    "lon": 140.033996582
  },
  "DYR": {
    "name": "Ugolny Airport",
    "city": "Anadyr",
    "country": "RU",
    "lat": 64.7349014282,
    "lon": 177.7409973145
  },
  "PVS": {
    "name": "Provideniya Bay Airport",
    "city": "Chukotka",
    "country": "RU",
    "lat": 64.3780975342,
    "lon": -173.2429962158
  },
  "KPW": {
    "name": "Keperveem Airport",
    "city": "Keperveem",
    "country": "RU",
    "lat": 67.8450012207,
    "lon": 166.13999939
  },
  "GDX": {
    "name": "Sokol Airport",
    "city": "Magadan",
    "country": "RU",
    "lat": 59.9109992981,
    "lon": 150.7200012207
  },
  "KVM": {
    "name": "Markovo Airport",
    "city": "Markovo",
    "country": "RU",
    "lat": 64.6669998169,
    "lon": 170.4170074463
  },
  "PWE": {
    "name": "Pevek Airport",
    "city": "Pevek",
    "country": "RU",
    "lat": 69.7833023071,
    "lon": 170.5970001221
  },
  "SWV": {
    "name": "Severo-Evensk Airport",
    "city": "Evensk",
    "country": "RU",
    "lat": 61.9216651917,
    "lon": 159.2299957275
  },
  "BQG": {
    "name": "Bogorodskoye Airport",
    "city": "Bogorodskoye",
    "country": "RU",
    "lat": 52.38,
    "lon": 140.448
  },
  "NLI": {
    "name": "Nikolayevsk-na-Amure Airport",
    "city": "Nikolayevsk-na-Amure Airport",
    "country": "RU",
    "lat": 53.1549987793,
    "lon": 140.6499938965
  },
  "OHO": {
    "name": "Okhotsk Airport",
    "city": "Okhotsk",
    "country": "RU",
    "lat": 59.4100646973,
    "lon": 143.0565032959
  },
  "PKC": {
    "name": "Yelizovo Airport",
    "city": "Petropavlovsk-Kamchatsky",
    "country": "RU",
    "lat": 53.1679000854,
    "lon": 158.453994751
  },
  "BVV": {
    "name": "Burevestnik Airport",
    "city": "Iturup Island",
    "country": "RU",
    "lat": 44.9199981689,
    "lon": 147.6219940186
  },
  "OHH": {
    "name": "Okha Airport",
    "city": "Okha",
    "country": "RU",
    "lat": 53.5200004578,
    "lon": 142.88999939
  },
  "EKS": {
    "name": "Shakhtyorsk Airport",
    "city": "Shakhtersk",
    "country": "RU",
    "lat": 49.1902999878,
    "lon": 142.082992554
  },
  "DEE": {
    "name": "Mendeleyevo Airport",
    "city": "Kunashir Island",
    "country": "RU",
    "lat": 43.9584007263,
    "lon": 145.682998657
  },
  "ZZO": {
    "name": "Zonalnoye Airport",
    "city": "Tymovskoye",
    "country": "RU",
    "lat": 50.6692008972,
    "lon": 142.761001587
  },
  "UUS": {
    "name": "Yuzhno-Sakhalinsk Airport",
    "city": "Yuzhno-Sakhalinsk",
    "country": "RU",
    "lat": 46.8886985779,
    "lon": 142.7180023193
  },
  "AEM": {
    "name": "Amgu Airport",
    "city": "Amgu",
    "country": "RU",
    "lat": 45.84126,
    "lon": 137.673568
  },
  "TLY": {
    "name": "Plastun Airport",
    "city": "Plastun",
    "country": "RU",
    "lat": 44.8149986267,
    "lon": 136.2920074463
  },
  "VVO": {
    "name": "Vladivostok International Airport",
    "city": "Vladivostok",
    "country": "RU",
    "lat": 43.3989982605,
    "lon": 132.1479949951
  },
  "HTA": {
    "name": "Chita-Kadala Airport",
    "city": "Chita",
    "country": "RU",
    "lat": 52.0262985229,
    "lon": 113.3059997559
  },
  "BTK": {
    "name": "Bratsk Airport",
    "city": "Bratsk",
    "country": "RU",
    "lat": 56.3706016541,
    "lon": 101.6979980469
  },
  "UIK": {
    "name": "Ust-Ilimsk Airport",
    "city": "Ust-Ilimsk",
    "country": "RU",
    "lat": 58.136100769,
    "lon": 102.5650024414
  },
  "IKT": {
    "name": "Irkutsk Airport",
    "city": "Irkutsk",
    "country": "RU",
    "lat": 52.2680015564,
    "lon": 104.388999939
  },
  "ODO": {
    "name": "Bodaybo Airport",
    "city": "Bodaybo",
    "country": "RU",
    "lat": 57.8661003113,
    "lon": 114.242996216
  },
  "ERG": {
    "name": "Yerbogachen Airport",
    "city": "Erbogachen",
    "country": "RU",
    "lat": 61.2750015259,
    "lon": 108.029998779
  },
  "KCK": {
    "name": "Kirensk Airport",
    "city": "Kirensk",
    "country": "RU",
    "lat": 57.7729988098,
    "lon": 108.0640029907
  },
  "UKX": {
    "name": "Ust-Kut Airport",
    "city": "Ust-Kut",
    "country": "RU",
    "lat": 56.8567008972,
    "lon": 105.7300033569
  },
  "UUD": {
    "name": "Ulan-Ude Airport (Mukhino)",
    "city": "Ulan Ude",
    "country": "RU",
    "lat": 51.807800293,
    "lon": 107.43800354
  },
  "KBP": {
    "name": "Boryspil International Airport",
    "city": "Kiev",
    "country": "UA",
    "lat": 50.3450012207,
    "lon": 30.8946990967
  },
  "MXR": {
    "name": "Myrhorod Air Base",
    "city": "Myrhorod",
    "country": "UA",
    "lat": 49.931667,
    "lon": 33.639444
  },
  "DOK": {
    "name": "Donetsk International Airport",
    "city": "Donetsk",
    "country": "UA",
    "lat": 48.073600769,
    "lon": 37.7397003174
  },
  "KRQ": {
    "name": "Kramatorsk Airport",
    "city": "Kramatorsk",
    "country": "UA",
    "lat": 48.7056007385,
    "lon": 37.6288986206
  },
  "MPW": {
    "name": "Mariupol International Airport",
    "city": "Mariupol",
    "country": "UA",
    "lat": 47.0760993958,
    "lon": 37.4496002197
  },
  "SEV": {
    "name": "Sievierodonetsk Airport",
    "city": "Sievierodonetsk",
    "country": "UA",
    "lat": 48.9003301015,
    "lon": 38.5416698456
  },
  "VSG": {
    "name": "Luhansk International Airport",
    "city": "Luhansk",
    "country": "UA",
    "lat": 48.4174003601,
    "lon": 39.3740997314
  },
  "ERD": {
    "name": "Berdyansk Airport",
    "city": "Berdyansk",
    "country": "UA",
    "lat": 46.8149986267,
    "lon": 36.7580986023
  },
  "DNK": {
    "name": "Dnipropetrovsk International Airport",
    "city": "Dnipropetrovsk",
    "country": "UA",
    "lat": 48.3572006226,
    "lon": 35.1006011963
  },
  "OZH": {
    "name": "Zaporizhzhia International Airport",
    "city": "Zaporizhia",
    "country": "UA",
    "lat": 47.8670005798,
    "lon": 35.315700531
  },
  "KWG": {
    "name": "Kryvyi Rih International Airport",
    "city": "Kryvyi Rih",
    "country": "UA",
    "lat": 48.0433006287,
    "lon": 33.2099990845
  },
  "SIP": {
    "name": "Simferopol International Airport",
    "city": "Simferopol",
    "country": "UA",
    "lat": 45.0522003174,
    "lon": 33.9751014709
  },
  "KHC": {
    "name": "Kerch Airport",
    "city": "Kerch",
    "country": "UA",
    "lat": 45.3725013733,
    "lon": 36.4014015198
  },
  "HRK": {
    "name": "Kharkiv International Airport",
    "city": "Kharkiv",
    "country": "UA",
    "lat": 49.9248008728,
    "lon": 36.2900009155
  },
  "PLV": {
    "name": "Suprunovka Airport",
    "city": "Poltava",
    "country": "UA",
    "lat": 49.5685997009,
    "lon": 34.3972015381
  },
  "UMY": {
    "name": "Sumy Airport",
    "city": "Sumy",
    "country": "UA",
    "lat": 50.8582992554,
    "lon": 34.7625007629
  },
  "CKC": {
    "name": "Cherkasy International Airport",
    "city": "Cherkasy",
    "country": "UA",
    "lat": 49.415599823,
    "lon": 31.995300293
  },
  "KGO": {
    "name": "Kirovograd Airport",
    "city": "Kirovograd",
    "country": "UA",
    "lat": 48.5428009033,
    "lon": 32.2849998474
  },
  "IEV": {
    "name": "Kiev Zhuliany International Airport",
    "city": "Kiev",
    "country": "UA",
    "lat": 50.4016990662,
    "lon": 30.4496994019
  },
  "GML": {
    "name": "Gostomel Airport",
    "city": "Kiev",
    "country": "UA",
    "lat": 50.6035003662,
    "lon": 30.1919002533
  },
  "ZTR": {
    "name": "Zhytomyr Airport",
    "city": "",
    "country": "UA",
    "lat": 50.270556,
    "lon": 28.738611
  },
  "UCK": {
    "name": "Lutsk Airport",
    "city": "Lutsk",
    "country": "UA",
    "lat": 50.6784041103,
    "lon": 25.487165451
  },
  "HMJ": {
    "name": "Khmelnytskyi Airport",
    "city": "Khmelnytskyi",
    "country": "UA",
    "lat": 49.3596992493,
    "lon": 26.9333992004
  },
  "IFO": {
    "name": "Ivano-Frankivsk International Airport",
    "city": "Ivano-Frankivsk",
    "country": "UA",
    "lat": 48.8842010498,
    "lon": 24.6861000061
  },
  "LWO": {
    "name": "Lviv International Airport",
    "city": "Lviv",
    "country": "UA",
    "lat": 49.8125,
    "lon": 23.9561004639
  },
  "CWC": {
    "name": "Chernivtsi International Airport",
    "city": "Chernivtsi",
    "country": "UA",
    "lat": 48.2593002319,
    "lon": 25.9808006287
  },
  "RWN": {
    "name": "Rivne International Airport",
    "city": "Rivne",
    "country": "UA",
    "lat": 50.6071014404,
    "lon": 26.1415996552
  },
  "TNL": {
    "name": "Ternopil International Airport",
    "city": "Ternopil",
    "country": "UA",
    "lat": 49.5242004395,
    "lon": 25.7000999451
  },
  "UDJ": {
    "name": "Uzhhorod International Airport",
    "city": "Uzhhorod",
    "country": "UA",
    "lat": 48.6343002319,
    "lon": 22.2633991241
  },
  "KHE": {
    "name": "Chernobayevka Airport",
    "city": "Kherson",
    "country": "UA",
    "lat": 46.6758003235,
    "lon": 32.506401062
  },
  "NLV": {
    "name": "Mykolaiv International Airport",
    "city": "Nikolayev",
    "country": "UA",
    "lat": 47.0578994751,
    "lon": 31.9197998047
  },
  "ODS": {
    "name": "Odessa International Airport",
    "city": "Odessa",
    "country": "UA",
    "lat": 46.4267997742,
    "lon": 30.6765003204
  },
  "VIN": {
    "name": "Vinnytsia/Gavyryshivka Airport",
    "city": "Vinnitsa",
    "country": "UA",
    "lat": 49.242531,
    "lon": 28.613778
  },
  "ARH": {
    "name": "Talagi Airport",
    "city": "Archangelsk",
    "country": "RU",
    "lat": 64.6003036499,
    "lon": 40.7167015076
  },
  "VKV": {
    "name": "Vaskovo Airport",
    "city": "Arkhangelsk",
    "country": "RU",
    "lat": 64.4417037964,
    "lon": 40.4216995239
  },
  "LDG": {
    "name": "Leshukonskoye Airport",
    "city": "Leshukonskoye",
    "country": "RU",
    "lat": 64.8960037231,
    "lon": 45.7229995728
  },
  "NNM": {
    "name": "Naryan Mar Airport",
    "city": "Naryan Mar",
    "country": "RU",
    "lat": 67.6399993896,
    "lon": 53.1218986511
  },
  "CSH": {
    "name": "Solovki Airport",
    "city": "Solovetsky Islands",
    "country": "RU",
    "lat": 65.0299987793,
    "lon": 35.7333335876
  },
  "AMV": {
    "name": "Amderma Airport",
    "city": "Amderma",
    "country": "RU",
    "lat": 69.7632980347,
    "lon": 61.5564002991
  },
  "VRI": {
    "name": "Varandey Airport",
    "city": "",
    "country": "RU",
    "lat": 68.8485031128,
    "lon": 58.2014007568
  },
  "KSZ": {
    "name": "Kotlas Airport",
    "city": "Kotlas",
    "country": "RU",
    "lat": 61.2358016968,
    "lon": 46.6974983215
  },
  "LED": {
    "name": "Pulkovo Airport",
    "city": "St. Petersburg",
    "country": "RU",
    "lat": 59.8003005981,
    "lon": 30.2625007629
  },
  "KVK": {
    "name": "Kirovsk-Apatity Airport",
    "city": "Apatity",
    "country": "RU",
    "lat": 67.4633026123,
    "lon": 33.5882987976
  },
  "MMK": {
    "name": "Murmansk Airport",
    "city": "Murmansk",
    "country": "RU",
    "lat": 68.7817001343,
    "lon": 32.7508010864
  },
  "VLU": {
    "name": "Velikiye Luki Airport",
    "city": "Velikiye Luki",
    "country": "RU",
    "lat": 56.3810997009,
    "lon": 30.6081008911
  },
  "PKV": {
    "name": "Pskov Airport",
    "city": "Pskov",
    "country": "RU",
    "lat": 57.7839012146,
    "lon": 28.3955993652
  },
  "PES": {
    "name": "Petrozavodsk Airport",
    "city": "Petrozavodsk",
    "country": "RU",
    "lat": 61.8852005005,
    "lon": 34.1547012329
  },
  "CEE": {
    "name": "Cherepovets Airport",
    "city": "Cherepovets",
    "country": "RU",
    "lat": 59.276667,
    "lon": 38.028333
  },
  "VUS": {
    "name": "Velikiy Ustyug Airport",
    "city": "Velikiy Ustyug",
    "country": "RU",
    "lat": 60.7882995605,
    "lon": 46.2599983215
  },
  "VGD": {
    "name": "Vologda Airport",
    "city": "Vologda",
    "country": "RU",
    "lat": 59.2825012207,
    "lon": 39.9444007874
  },
  "BQT": {
    "name": "Brest Airport",
    "city": "Brest",
    "country": "BY",
    "lat": 52.1082992554,
    "lon": 23.8980998993
  },
  "GME": {
    "name": "Gomel Airport",
    "city": "Gomel",
    "country": "BY",
    "lat": 52.5270004272,
    "lon": 31.0167007446
  },
  "VTB": {
    "name": "Vitebsk East Airport",
    "city": "Vitebsk",
    "country": "BY",
    "lat": 55.126499176,
    "lon": 30.3495998383
  },
  "KGD": {
    "name": "Khrabrovo Airport",
    "city": "Kaliningrad",
    "country": "RU",
    "lat": 54.8899993896,
    "lon": 20.5925998688
  },
  "GNA": {
    "name": "Hrodna Airport",
    "city": "Hrodna",
    "country": "BY",
    "lat": 53.6020011902,
    "lon": 24.0538005829
  },
  "MHP": {
    "name": "Minsk 1 Airport",
    "city": "Minsk",
    "country": "BY",
    "lat": 53.8644981384,
    "lon": 27.5396995544
  },
  "MSQ": {
    "name": "Minsk International Airport",
    "city": "Minsk",
    "country": "BY",
    "lat": 53.8824996948,
    "lon": 28.0307006836
  },
  "MVQ": {
    "name": "Mogilev Airport",
    "city": "Mogilev",
    "country": "BY",
    "lat": 53.9548988342,
    "lon": 30.0951004028
  },
  "ABA": {
    "name": "Abakan Airport",
    "city": "Abakan",
    "country": "RU",
    "lat": 53.7400016785,
    "lon": 91.3850021362
  },
  "BAX": {
    "name": "Barnaul Airport",
    "city": "Barnaul",
    "country": "RU",
    "lat": 53.3638000488,
    "lon": 83.5384979248
  },
  "RGK": {
    "name": "Gorno-Altaysk Airport",
    "city": "Gorno-Altaysk",
    "country": "RU",
    "lat": 51.9667015076,
    "lon": 85.8332977295
  },
  "KEJ": {
    "name": "Kemerovo Airport",
    "city": "Kemerovo",
    "country": "RU",
    "lat": 55.2700996399,
    "lon": 86.1072006226
  },
  "EIE": {
    "name": "Yeniseysk Airport",
    "city": "Yeniseysk",
    "country": "RU",
    "lat": 58.4742012024,
    "lon": 92.1125030518
  },
  "TGP": {
    "name": "Podkamennaya Tunguska Airport",
    "city": "Bor",
    "country": "RU",
    "lat": 61.5896987915,
    "lon": 89.9940032959
  },
  "KJA": {
    "name": "Yemelyanovo Airport",
    "city": "Krasnoyarsk",
    "country": "RU",
    "lat": 56.1729011536,
    "lon": 92.4933013916
  },
  "ACS": {
    "name": "Achinsk Airport",
    "city": "Achinsk",
    "country": "RU",
    "lat": 56.2682991028,
    "lon": 90.5708007813
  },
  "KYZ": {
    "name": "Kyzyl Airport",
    "city": "Kyzyl",
    "country": "RU",
    "lat": 51.6693992615,
    "lon": 94.4005966187
  },
  "OVB": {
    "name": "Tolmachevo Airport",
    "city": "Novosibirsk",
    "country": "RU",
    "lat": 55.0125999451,
    "lon": 82.6507034302
  },
  "OMS": {
    "name": "Omsk Central Airport",
    "city": "Omsk",
    "country": "RU",
    "lat": 54.966999054,
    "lon": 73.3105010986
  },
  "SWT": {
    "name": "Strezhevoy Airport",
    "city": "Strezhevoy",
    "country": "RU",
    "lat": 60.709400177,
    "lon": 77.6600036621
  },
  "TOF": {
    "name": "Bogashevo Airport",
    "city": "Tomsk",
    "country": "RU",
    "lat": 56.3802986145,
    "lon": 85.2082977295
  },
  "NOZ": {
    "name": "Spichenkovo Airport",
    "city": "Novokuznetsk",
    "country": "RU",
    "lat": 53.8114013672,
    "lon": 86.8771972656
  },
  "DKS": {
    "name": "Dikson Airport",
    "city": "Dikson",
    "country": "RU",
    "lat": 73.5178070068,
    "lon": 80.3796691895
  },
  "HTG": {
    "name": "Khatanga Airport",
    "city": "Khatanga",
    "country": "RU",
    "lat": 71.9781036377,
    "lon": 102.4909973145
  },
  "IAA": {
    "name": "Igarka Airport",
    "city": "Igarka",
    "country": "RU",
    "lat": 67.4372024536,
    "lon": 86.6219024658
  },
  "NSK": {
    "name": "Norilsk-Alykel Airport",
    "city": "Norilsk",
    "country": "RU",
    "lat": 69.3110961914,
    "lon": 87.3321990967
  },
  "THX": {
    "name": "Turukhansk Airport",
    "city": "Turukhansk",
    "country": "RU",
    "lat": 65.797203064,
    "lon": 87.9353027344
  },
  "UKS": {
    "name": "Belbek Airport",
    "city": "Sevastopol",
    "country": "UA",
    "lat": 44.688999176,
    "lon": 33.5709991455
  },
  "AAQ": {
    "name": "Anapa Airport",
    "city": "Anapa",
    "country": "RU",
    "lat": 45.0021018982,
    "lon": 37.3473014832
  },
  "EIK": {
    "name": "Yeysk Airport",
    "city": "Yeysk",
    "country": "RU",
    "lat": 46.68,
    "lon": 38.21
  },
  "GDZ": {
    "name": "Gelendzhik Airport",
    "city": "Gelendzhik",
    "country": "RU",
    "lat": 44.5820926295,
    "lon": 38.0124807358
  },
  "KRR": {
    "name": "Krasnodar International Airport",
    "city": "Krasnodar",
    "country": "RU",
    "lat": 45.0346984863,
    "lon": 39.170501709
  },
  "GRV": {
    "name": "Grozny North Airport",
    "city": "Grozny",
    "country": "RU",
    "lat": 43.3883018494,
    "lon": 45.698600769
  },
  "MCX": {
    "name": "Uytash Airport",
    "city": "Makhachkala",
    "country": "RU",
    "lat": 42.8167991638,
    "lon": 47.6523017883
  },
  "MRV": {
    "name": "Mineralnyye Vody Airport",
    "city": "Mineralnyye Vody",
    "country": "RU",
    "lat": 44.2251014709,
    "lon": 43.0819015503
  },
  "NAL": {
    "name": "Nalchik Airport",
    "city": "Nalchik",
    "country": "RU",
    "lat": 43.5129013062,
    "lon": 43.6366004944
  },
  "OGZ": {
    "name": "Beslan Airport",
    "city": "Beslan",
    "country": "RU",
    "lat": 43.2051010132,
    "lon": 44.6066017151
  },
  "IGT": {
    "name": "Magas Airport",
    "city": "Magas",
    "country": "RU",
    "lat": 43.3222999573,
    "lon": 45.0125999451
  },
  "STW": {
    "name": "Stavropol Shpakovskoye Airport",
    "city": "Stavropol",
    "country": "RU",
    "lat": 45.1091995239,
    "lon": 42.1128005981
  },
  "ROV": {
    "name": "Platov International Airport",
    "city": "Rostov-on-Don",
    "country": "RU",
    "lat": 47.50083333,
    "lon": 39.93361111
  },
  "RVI": {
    "name": "Rostov-na-Donu Airport",
    "city": "Rostov-on-Don",
    "country": "RU",
    "lat": 47.2582015991,
    "lon": 39.8180999756
  },
  "TGK": {
    "name": "Taganrog Yuzhny Airport",
    "city": "Taganrog",
    "country": "RU",
    "lat": 47.2000007629,
    "lon": 38.8499984741
  },
  "VLK": {
    "name": "Zavetnoe Airport",
    "city": "",
    "country": "RU",
    "lat": 46.5443000793,
    "lon": 43.6456985474
  },
  "AER": {
    "name": "Sochi International Airport",
    "city": "Sochi",
    "country": "RU",
    "lat": 43.4499015808,
    "lon": 39.9566001892
  },
  "ASF": {
    "name": "Astrakhan Airport",
    "city": "Astrakhan",
    "country": "RU",
    "lat": 46.2832984924,
    "lon": 48.0063018799
  },
  "ESL": {
    "name": "Elista Airport",
    "city": "Elista",
    "country": "RU",
    "lat": 46.3739013672,
    "lon": 44.3308982849
  },
  "VOG": {
    "name": "Volgograd International Airport",
    "city": "Volgograd",
    "country": "RU",
    "lat": 48.7825012207,
    "lon": 44.345500946
  },
  "CEK": {
    "name": "Chelyabinsk Balandino Airport",
    "city": "Chelyabinsk",
    "country": "RU",
    "lat": 55.3058013916,
    "lon": 61.5032997131
  },
  "MQF": {
    "name": "Magnitogorsk International Airport",
    "city": "Magnitogorsk",
    "country": "RU",
    "lat": 53.3931007385,
    "lon": 58.7556991577
  },
  "SBT": {
    "name": "Sabetta Airport",
    "city": "Sabetta",
    "country": "RU",
    "lat": 71.215,
    "lon": 72.038
  },
  "BVJ": {
    "name": "Bovanenkovo",
    "city": "Bovanenkovo",
    "country": "RU",
    "lat": 70.315277778,
    "lon": 68.333611111
  },
  "SLY": {
    "name": "Salekhard Airport",
    "city": "Salekhard",
    "country": "RU",
    "lat": 66.5907974243,
    "lon": 66.611000061
  },
  "YMK": {
    "name": "Mys Kamenny Airport",
    "city": "Mys Kamennyi",
    "country": "RU",
    "lat": 68.483001709,
    "lon": 73.5670013428
  },
  "KKQ": {
    "name": "Krasnoselkup Airport",
    "city": "Krasnoselkup",
    "country": "RU",
    "lat": 65.717,
    "lon": 82.455
  },
  "TQL": {
    "name": "Tarko-Sale Airport",
    "city": "Tarko-Sale",
    "country": "RU",
    "lat": 64.9308013916,
    "lon": 77.8180999756
  },
  "UEN": {
    "name": "Urengoy Airport",
    "city": "Urengoy",
    "country": "RU",
    "lat": 65.9599990845,
    "lon": 78.43699646
  },
  "EZV": {
    "name": "Berezovo Airport",
    "city": "",
    "country": "RU",
    "lat": 63.9210014343,
    "lon": 65.0305023193
  },
  "HMA": {
    "name": "Khanty Mansiysk Airport",
    "city": "Khanty-Mansiysk",
    "country": "RU",
    "lat": 61.0284996033,
    "lon": 69.0860977173
  },
  "IRM": {
    "name": "Igrim Airport",
    "city": "",
    "country": "RU",
    "lat": 63.1987991333,
    "lon": 64.4393005371
  },
  "KXD": {
    "name": "Kondinskoye Airport",
    "city": "Kondinskoye",
    "country": "RU",
    "lat": 59.6550827026,
    "lon": 67.4300460815
  },
  "NYA": {
    "name": "Nyagan Airport",
    "city": "Nyagan",
    "country": "RU",
    "lat": 62.1100006104,
    "lon": 65.6149978638
  },
  "OVS": {
    "name": "Sovetskiy Airport",
    "city": "Sovetskiy",
    "country": "RU",
    "lat": 61.3266220093,
    "lon": 63.6019134521
  },
  "URJ": {
    "name": "Uray Airport",
    "city": "Uray",
    "country": "RU",
    "lat": 60.1032981873,
    "lon": 64.8266983032
  },
  "IJK": {
    "name": "Izhevsk Airport",
    "city": "Izhevsk",
    "country": "RU",
    "lat": 56.8280982971,
    "lon": 53.4575004578
  },
  "KVX": {
    "name": "Pobedilovo Airport",
    "city": "Kirov",
    "country": "RU",
    "lat": 58.5032997131,
    "lon": 49.3483009338
  },
  "NYM": {
    "name": "Nadym Airport",
    "city": "Nadym",
    "country": "RU",
    "lat": 65.4809036255,
    "lon": 72.6988983154
  },
  "NUX": {
    "name": "Novy Urengoy Airport",
    "city": "Novy Urengoy",
    "country": "RU",
    "lat": 66.0693969727,
    "lon": 76.5203018188
  },
  "NJC": {
    "name": "Nizhnevartovsk Airport",
    "city": "Nizhnevartovsk",
    "country": "RU",
    "lat": 60.9492988586,
    "lon": 76.4835968018
  },
  "PEE": {
    "name": "Bolshoye Savino Airport",
    "city": "Perm",
    "country": "RU",
    "lat": 57.9145011902,
    "lon": 56.0211982727
  },
  "KGP": {
    "name": "Kogalym International Airport",
    "city": "Kogalym",
    "country": "RU",
    "lat": 62.1903991699,
    "lon": 74.5337982178
  },
  "NFG": {
    "name": "Nefteyugansk Airport",
    "city": "Nefteyugansk",
    "country": "RU",
    "lat": 61.1082992554,
    "lon": 72.6500015259
  },
  "NOJ": {
    "name": "Noyabrsk Airport",
    "city": "Noyabrsk",
    "country": "RU",
    "lat": 63.1833000183,
    "lon": 75.2699966431
  },
  "SGC": {
    "name": "Surgut Airport",
    "city": "Surgut",
    "country": "RU",
    "lat": 61.3437004089,
    "lon": 73.401802063
  },
  "SVX": {
    "name": "Koltsovo Airport",
    "city": "Yekaterinburg",
    "country": "RU",
    "lat": 56.7430992126,
    "lon": 60.8027000427
  },
  "TOX": {
    "name": "Tobolsk Airport",
    "city": "Tobolsk",
    "country": "RU",
    "lat": 58.135799408,
    "lon": 68.2319030762
  },
  "TJM": {
    "name": "Roshchino International Airport",
    "city": "Tyumen",
    "country": "RU",
    "lat": 57.1896018982,
    "lon": 65.3243026733
  },
  "KRO": {
    "name": "Kurgan Airport",
    "city": "Kurgan",
    "country": "RU",
    "lat": 55.4752998352,
    "lon": 65.4156036377
  },
  "KMW": {
    "name": "Kostroma Sokerkino Airport",
    "city": "Kostroma",
    "country": "RU",
    "lat": 57.7969017029,
    "lon": 41.0194015503
  },
  "BKA": {
    "name": "Bykovo Airport",
    "city": "Moscow",
    "country": "RU",
    "lat": 55.6171989441,
    "lon": 38.0600013733
  },
  "KLF": {
    "name": "Grabtsevo Airport",
    "city": "Kaluga",
    "country": "RU",
    "lat": 54.5499992371,
    "lon": 36.3666687012
  },
  "IWA": {
    "name": "Ivanovo South Airport",
    "city": "Ivanovo",
    "country": "RU",
    "lat": 56.9393997192,
    "lon": 40.9407997131
  },
  "RYB": {
    "name": "Staroselye Airport",
    "city": "Rybinsk",
    "country": "RU",
    "lat": 58.1041984558,
    "lon": 38.9294013977
  },
  "BZK": {
    "name": "Bryansk Airport",
    "city": "Bryansk",
    "country": "RU",
    "lat": 53.2141990662,
    "lon": 34.176399231
  },
  "LNX": {
    "name": "Smolensk South Airport",
    "city": "Smolensk",
    "country": "RU",
    "lat": 54.745,
    "lon": 32.065
  },
  "ZIA": {
    "name": "Ramenskoye Airport",
    "city": "Zhukovsky",
    "country": "RU",
    "lat": 55.5532989502,
    "lon": 38.1500015259
  },
  "DME": {
    "name": "Domodedovo International Airport",
    "city": "Moscow",
    "country": "RU",
    "lat": 55.4087982178,
    "lon": 37.9062995911
  },
  "IAR": {
    "name": "Tunoshna Airport",
    "city": "",
    "country": "RU",
    "lat": 57.5606994629,
    "lon": 40.1573982239
  },
  "SVO": {
    "name": "Sheremetyevo International Airport",
    "city": "Moscow",
    "country": "RU",
    "lat": 55.9725990295,
    "lon": 37.4146003723
  },
  "KLD": {
    "name": "Migalovo Air Base",
    "city": "Tver",
    "country": "RU",
    "lat": 56.8246994019,
    "lon": 35.7577018738
  },
  "OSF": {
    "name": "Ostafyevo International Airport",
    "city": "Moscow",
    "country": "RU",
    "lat": 55.5116996765,
    "lon": 37.5071983337
  },
  "CKL": {
    "name": "Chkalovskiy Airport",
    "city": "Moscow",
    "country": "RU",
    "lat": 55.8782997131,
    "lon": 38.0616989136
  },
  "EGO": {
    "name": "Belgorod International Airport",
    "city": "Belgorod",
    "country": "RU",
    "lat": 50.6437988281,
    "lon": 36.5900993347
  },
  "URS": {
    "name": "Kursk East Airport",
    "city": "Kursk",
    "country": "RU",
    "lat": 51.7505989075,
    "lon": 36.2956008911
  },
  "LPK": {
    "name": "Lipetsk Airport",
    "city": "Lipetsk",
    "country": "RU",
    "lat": 52.7028007507,
    "lon": 39.5377998352
  },
  "VOZ": {
    "name": "Voronezh International Airport",
    "city": "Voronezh",
    "country": "RU",
    "lat": 51.814201355,
    "lon": 39.229598999
  },
  "OEL": {
    "name": "Oryol Yuzhny Airport",
    "city": "Orel",
    "country": "RU",
    "lat": 52.9347000122,
    "lon": 36.0022010803
  },
  "TBW": {
    "name": "Donskoye Airport",
    "city": "Tambov",
    "country": "RU",
    "lat": 52.806098938,
    "lon": 41.48279953
  },
  "RZN": {
    "name": "Turlatovo Airport",
    "city": "Ryazan",
    "country": "RU",
    "lat": 54.5559005737,
    "lon": 39.8552017212
  },
  "VKO": {
    "name": "Vnukovo International Airport",
    "city": "Moscow",
    "country": "RU",
    "lat": 55.5914993286,
    "lon": 37.2615013123
  },
  "UCT": {
    "name": "Ukhta Airport",
    "city": "Ukhta",
    "country": "RU",
    "lat": 63.5668983459,
    "lon": 53.8046989441
  },
  "INA": {
    "name": "Inta Airport",
    "city": "Inta",
    "country": "RU",
    "lat": 66.0548324585,
    "lon": 60.1103210449
  },
  "PEX": {
    "name": "Pechora Airport",
    "city": "Pechora",
    "country": "RU",
    "lat": 65.1211013794,
    "lon": 57.1307983398
  },
  "USK": {
    "name": "Usinsk Airport",
    "city": "Usinsk",
    "country": "RU",
    "lat": 66.004699707,
    "lon": 57.3671989441
  },
  "VKT": {
    "name": "Vorkuta Airport",
    "city": "Vorkuta",
    "country": "RU",
    "lat": 67.4886016846,
    "lon": 63.9930992126
  },
  "UTS": {
    "name": "Ust-Tsylma Airport",
    "city": "Ust-Tsylma",
    "country": "RU",
    "lat": 65.4372940063,
    "lon": 52.2003364563
  },
  "SCW": {
    "name": "Syktyvkar Airport",
    "city": "Syktyvkar",
    "country": "RU",
    "lat": 61.6469993591,
    "lon": 50.8451004028
  },
  "GOJ": {
    "name": "Nizhny Novgorod International Airport",
    "city": "Nizhny Novgorod",
    "country": "RU",
    "lat": 56.2300987244,
    "lon": 43.7840003967
  },
  "UUA": {
    "name": "Bugulma Airport",
    "city": "Bugulma",
    "country": "RU",
    "lat": 54.6399993896,
    "lon": 52.801700592
  },
  "KZN": {
    "name": "Kazan International Airport",
    "city": "Kazan",
    "country": "RU",
    "lat": 55.6062011719,
    "lon": 49.2787017822
  },
  "NBC": {
    "name": "Begishevo Airport",
    "city": "Nizhnekamsk",
    "country": "RU",
    "lat": 55.5647010803,
    "lon": 52.0924987793
  },
  "JOK": {
    "name": "Yoshkar-Ola Airport",
    "city": "Yoshkar-Ola",
    "country": "RU",
    "lat": 56.7005996704,
    "lon": 47.9047012329
  },
  "CSY": {
    "name": "Cheboksary Airport",
    "city": "Cheboksary",
    "country": "RU",
    "lat": 56.0903015137,
    "lon": 47.3473014832
  },
  "ULV": {
    "name": "Ulyanovsk Baratayevka Airport",
    "city": "Ulyanovsk",
    "country": "RU",
    "lat": 54.2682991028,
    "lon": 48.2266998291
  },
  "ULY": {
    "name": "Ulyanovsk East Airport",
    "city": "Ulyanovsk",
    "country": "RU",
    "lat": 54.4010009766,
    "lon": 48.8027000427
  },
  "REN": {
    "name": "Orenburg Central Airport",
    "city": "Orenburg",
    "country": "RU",
    "lat": 51.7957992554,
    "lon": 55.4566993713
  },
  "OSW": {
    "name": "Orsk Airport",
    "city": "Orsk",
    "country": "RU",
    "lat": 51.0724983215,
    "lon": 58.5956001282
  },
  "PEZ": {
    "name": "Penza Airport",
    "city": "Penza",
    "country": "RU",
    "lat": 53.1105995178,
    "lon": 45.0210990906
  },
  "SKX": {
    "name": "Saransk Airport",
    "city": "Saransk",
    "country": "RU",
    "lat": 54.1251296997,
    "lon": 45.2122573853
  },
  "BWO": {
    "name": "Balakovo Airport",
    "city": "Balakovo",
    "country": "RU",
    "lat": 51.8582992554,
    "lon": 47.7456016541
  },
  "GSV": {
    "name": "Saratov Gagarin Airport",
    "city": "Saratov",
    "country": "RU",
    "lat": 51.712778,
    "lon": 46.171111
  },
  "RTW": {
    "name": "Saratov Central Airport",
    "city": "Saratov",
    "country": "RU",
    "lat": 51.5649986267,
    "lon": 46.0466995239
  },
  "BCX": {
    "name": "Beloretsk Airport",
    "city": "Beloretsk",
    "country": "RU",
    "lat": 53.9380989075,
    "lon": 58.3400001526
  },
  "NEF": {
    "name": "Neftekamsk Airport",
    "city": "Neftekamsk",
    "country": "RU",
    "lat": 56.1068992615,
    "lon": 54.3471984863
  },
  "OKT": {
    "name": "Oktyabrskiy Airport",
    "city": "Kzyl-Yar",
    "country": "RU",
    "lat": 54.4399986267,
    "lon": 53.3883018494
  },
  "UFA": {
    "name": "Ufa International Airport",
    "city": "Ufa",
    "country": "RU",
    "lat": 54.5574989319,
    "lon": 55.8744010925
  },
  "KUF": {
    "name": "Kurumoch International Airport",
    "city": "Samara",
    "country": "RU",
    "lat": 53.504901886,
    "lon": 50.1642990112
  },
  "SKL": {
    "name": "Skye Bridge Ashaig Airport",
    "city": "Broadford",
    "country": "GB",
    "lat": 57.2533988953,
    "lon": -5.8278999329
  }
}