{
  "KIA": {
    "name": "Kaieteur International Airport",
    "city": "Kaieteur Falls",
    "country": "GY",
    "lat": 5.1727547646,
    "lon": -59.491481781
  },
  "CCT": {
    "name": "Colonia Catriel Airport",
    "city": "Colonia Catriel",
    "country": "AR",
    "lat": -37.9101982117,
    "lon": -67.8349990845
  },
  "COC": {
    "name": "Comodoro Pierrestegui Airport",
    "city": "Concordia",
    "country": "AR",
    "lat": -31.2969,
    "lon": -57.9966
  },
  "GHU": {
    "name": "Gualeguaychu Airport",
    "city": "Gualeguaychu",
    "country": "AR",
    "lat": -33.0103,
    "lon": -58.6131
  },
  "JNI": {
    "name": "Junin Airport",
    "city": "Junin",
    "country": "AR",
    "lat": -34.5459,
    "lon": -60.9306
  },
  "PRA": {
    "name": "General Urquiza Airport",
    "city": "Parana",
    "country": "AR",
    "lat": -31.7948,
    "lon": -60.4804
  },
  "ROS": {
    "name": "Islas Malvinas Airport",
    "city": "Rosario",
    "country": "AR",
    "lat": -32.9036,
    "lon": -60.785
  },
  "SFN": {
    "name": "Sauce Viejo Airport",
    "city": "Santa Fe",
    "country": "AR",
    "lat": -31.7117,
    "lon": -60.8117
  },
  "AEP": {
    "name": "Jorge Newbery Airpark",
    "city": "Buenos Aires",
    "country": "AR",
    "lat": -34.5592,
    "lon": -58.4156
  },
  "LCM": {
    "name": "La Cumbre Airport",
    "city": "La Cumbre",
    "country": "AR",
    "lat": -31.0058002472,
    "lon": -64.5318984985
  },
  "COR": {
    "name": "Ingeniero Ambrosio Taravella Airport",
    "city": "Cordoba",
    "country": "AR",
    "lat": -31.323600769,
    "lon": -64.2080001831
  },
  "FDO": {
    "name": "San Fernando Airport",
    "city": "San Fernando",
    "country": "AR",
    "lat": -34.4532,
    "lon": -58.5896
  },
  "LPG": {
    "name": "La Plata Airport",
    "city": "La Plata",
    "country": "AR",
    "lat": -34.9722,
    "lon": -57.8947
  },
  "EPA": {
    "name": "El Palomar Airport",
    "city": "El Palomar",
    "country": "AR",
    "lat": -34.6099,
    "lon": -58.6126
  },
  "MJR": {
    "name": "Miramar Airport",
    "city": "Miramar",
    "country": "AR",
    "lat": -38.2271,
    "lon": -57.8697
  },
  "EZE": {
    "name": "Ministro Pistarini International Airport",
    "city": "Ezeiza",
    "country": "AR",
    "lat": -34.8222,
    "lon": -58.5358
  },
  "RAF": {
    "name": "Rafaela Airport",
    "city": "Rafaela",
    "country": "AR",
    "lat": -31.2825,
    "lon": -61.5017
  },
  "NCJ": {
    "name": "Sunchales Aeroclub Airport",
    "city": "Sunchales",
    "country": "AR",
    "lat": -30.9575,
    "lon": -61.5283
  },
  "HOS": {
    "name": "Chos Malal Airport",
    "city": "Chos Malal",
    "country": "AR",
    "lat": -37.4446983337,
    "lon": -70.2225036621
  },
  "CVH": {
    "name": "Caviahue Airport",
    "city": "Lafontaine",
    "country": "AR",
    "lat": -37.851398468,
    "lon": -71.0092010498
  },
  "GNR": {
    "name": "Dr. Arturo H. Illia Airport",
    "city": "General Roca",
    "country": "AR",
    "lat": -39.0007019043,
    "lon": -67.6204986572
  },
  "RDS": {
    "name": "Rincon De Los Sauces Airport",
    "city": "Rincon de los Sauces",
    "country": "AR",
    "lat": -37.3905982971,
    "lon": -68.9041976929
  },
  "APZ": {
    "name": "Zapala Airport",
    "city": "Zapala",
    "country": "AR",
    "lat": -38.9754981995,
    "lon": -70.1136016846
  },
  "MDZ": {
    "name": "El Plumerillo Airport",
    "city": "Mendoza",
    "country": "AR",
    "lat": -32.8316993713,
    "lon": -68.7929000854
  },
  "LGS": {
    "name": "Comodoro D.R. Salomon Airport",
    "city": "Malargue",
    "country": "AR",
    "lat": -35.493598938,
    "lon": -69.5743026733
  },
  "AFA": {
    "name": "Suboficial Ay Santiago Germano Airport",
    "city": "San Rafael",
    "country": "AR",
    "lat": -34.5882987976,
    "lon": -68.4039001465
  },
  "CTC": {
    "name": "Catamarca Airport",
    "city": "Catamarca",
    "country": "AR",
    "lat": -28.5956001282,
    "lon": -65.751701355
  },
  "SDE": {
    "name": "Vicecomodoro Angel D. La Paz Aragones Airport",
    "city": "Santiago del Estero",
    "country": "AR",
    "lat": -27.7655563354,
    "lon": -64.3099975586
  },
  "RHD": {
    "name": "Las Termas Airport",
    "city": "Rio Hondo",
    "country": "AR",
    "lat": -27.4736995697,
    "lon": -64.9055023193
  },
  "IRJ": {
    "name": "Capitan V A Almonacid Airport",
    "city": "La Rioja",
    "country": "AR",
    "lat": -29.3815994263,
    "lon": -66.7957992554
  },
  "TUC": {
    "name": "Teniente Benjamin Matienzo Airport",
    "city": "San Miguel de Tucuman",
    "country": "AR",
    "lat": -26.8409004211,
    "lon": -65.1048965454
  },
  "UAQ": {
    "name": "Domingo Faustino Sarmiento Airport",
    "city": "San Juan",
    "country": "AR",
    "lat": -31.5715007782,
    "lon": -68.4181976318
  },
  "CRR": {
    "name": "Ceres Airport",
    "city": "Ceres",
    "country": "AR",
    "lat": -29.8631,
    "lon": -61.8728
  },
  "RCU": {
    "name": "Area De Material Airport",
    "city": "Rio Cuarto",
    "country": "AR",
    "lat": -33.0850982666,
    "lon": -64.2612991333
  },
  "VDR": {
    "name": "Villa Dolores Airport",
    "city": "Villa Dolores",
    "country": "AR",
    "lat": -31.9451999664,
    "lon": -65.1463012695
  },
  "VME": {
    "name": "Villa Reynolds Airport",
    "city": "Villa Reynolds",
    "country": "AR",
    "lat": -33.7299003601,
    "lon": -65.3873977661
  },
  "RLO": {
    "name": "Valle Del Conlara International Airport",
    "city": "Merlo",
    "country": "AR",
    "lat": -32.3847007751,
    "lon": -65.1865005493
  },
  "LUQ": {
    "name": "Brigadier Mayor D Cesar Raul Ojeda Airport",
    "city": "San Luis",
    "country": "AR",
    "lat": -33.2732009888,
    "lon": -66.3563995361
  },
  "CNQ": {
    "name": "Corrientes Airport",
    "city": "Corrientes",
    "country": "AR",
    "lat": -27.4455,
    "lon": -58.7619
  },
  "RES": {
    "name": "Resistencia International Airport",
    "city": "Resistencia",
    "country": "AR",
    "lat": -27.45,
    "lon": -59.0561
  },
  "FMA": {
    "name": "Formosa Airport",
    "city": "Formosa",
    "country": "AR",
    "lat": -26.2127,
    "lon": -58.2281
  },
  "IGR": {
    "name": "Cataratas Del Iguazu International Airport",
    "city": "Puerto Iguazu",
    "country": "AR",
    "lat": -25.7373008728,
    "lon": -54.473400116
  },
  "AOL": {
    "name": "Paso De Los Libres Airport",
    "city": "Paso de los Libres",
    "country": "AR",
    "lat": -29.6894,
    "lon": -57.1521
  },
  "MCS": {
    "name": "Monte Caseros Airport",
    "city": "Monte Caseros",
    "country": "AR",
    "lat": -30.2719,
    "lon": -57.6402
  },
  "PSS": {
    "name": "Libertador Gral D Jose De San Martin Airport",
    "city": "Posadas",
    "country": "AR",
    "lat": -27.3858,
    "lon": -55.9707
  },
  "PRQ": {
    "name": "Termal Airport",
    "city": "Presidencia Roque Saenz Pena",
    "country": "AR",
    "lat": -26.753610611,
    "lon": -60.4922218323
  },
  "SLA": {
    "name": "Martin Miguel De Guemes International Airport",
    "city": "Salta",
    "country": "AR",
    "lat": -24.8560009003,
    "lon": -65.4861984253
  },
  "JUJ": {
    "name": "Gobernador Horacio Guzman International Airport",
    "city": "San Salvador de Jujuy",
    "country": "AR",
    "lat": -24.3927993774,
    "lon": -65.0978012085
  },
  "ORA": {
    "name": "Oran Airport",
    "city": "Oran",
    "country": "AR",
    "lat": -23.1527996063,
    "lon": -64.3292007446
  },
  "TTG": {
    "name": "General Enrique Mosconi Airport",
    "city": "Tartagal",
    "country": "AR",
    "lat": -22.619600296,
    "lon": -63.7937011719
  },
  "CLX": {
    "name": "Clorinda Airport",
    "city": "Clorinda",
    "country": "AR",
    "lat": -25.3036,
    "lon": -57.7344
  },
  "ELO": {
    "name": "El Dorado Airport",
    "city": "El Dorado",
    "country": "AR",
    "lat": -26.3974990845,
    "lon": -54.5746994019
  },
  "OYA": {
    "name": "Goya Airport",
    "city": "Goya",
    "country": "AR",
    "lat": -29.1058,
    "lon": -59.2189
  },
  "LLS": {
    "name": "Alferez Armando Rodriguez Airport",
    "city": "Las Lomitas",
    "country": "AR",
    "lat": -24.7213993073,
    "lon": -60.5488014221
  },
  "MDX": {
    "name": "Mercedes Airport",
    "city": "Mercedes",
    "country": "AR",
    "lat": -29.2213993073,
    "lon": -58.0877990723
  },
  "RCQ": {
    "name": "Reconquista Airport",
    "city": "Reconquista",
    "country": "AR",
    "lat": -29.2103,
    "lon": -59.68
  },
  "UZU": {
    "name": "Curuzu Cuatia Airport",
    "city": "Curuzu Cuatia",
    "country": "AR",
    "lat": -29.7706,
    "lon": -57.9789
  },
  "EHL": {
    "name": "El Bolson Airport",
    "city": "El Bolson",
    "country": "AR",
    "lat": -41.9431991577,
    "lon": -71.5323028564
  },
  "CRD": {
    "name": "General E. Mosconi Airport",
    "city": "Comodoro Rivadavia",
    "country": "AR",
    "lat": -45.7853,
    "lon": -67.4655
  },
  "EMX": {
    "name": "El Maiten Airport",
    "city": "El Maiten",
    "country": "AR",
    "lat": -42.0292015076,
    "lon": -71.1725006104
  },
  "EQS": {
    "name": "Brigadier Antonio Parodi Airport",
    "city": "Esquel",
    "country": "AR",
    "lat": -42.908000946,
    "lon": -71.139503479
  },
  "LHS": {
    "name": "Las Heras Airport",
    "city": "Las Heras",
    "country": "AR",
    "lat": -46.5382995605,
    "lon": -68.9653015137
  },
  "IGB": {
    "name": "Cabo F.A.A. H. R. Bordon Airport",
    "city": "Ingeniero Jacobacci",
    "country": "AR",
    "lat": -41.3208999634,
    "lon": -69.5748977661
  },
  "OLN": {
    "name": "Lago Musters Airport",
    "city": "Sarmiento",
    "country": "AR",
    "lat": -45.5777777778,
    "lon": -69.0727777778
  },
  "OES": {
    "name": "Antoine De St Exupery Airport",
    "city": "San Antonio Oeste",
    "country": "AR",
    "lat": -40.7512,
    "lon": -65.0343
  },
  "MQD": {
    "name": "Maquinchao Airport",
    "city": "Maquinchao",
    "country": "AR",
    "lat": -41.2430992126,
    "lon": -68.7078018188
  },
  "ARR": {
    "name": "D. Casimiro Szlapelis Airport",
    "city": "Alto Rio Senguerr",
    "country": "AR",
    "lat": -45.0135993958,
    "lon": -70.8122024536
  },
  "SGV": {
    "name": "Sierra Grande Airport",
    "city": "Sierra Grande",
    "country": "AR",
    "lat": -41.5917015076,
    "lon": -65.3394012451
  },
  "REL": {
    "name": "Almirante Marco Andres Zar Airport",
    "city": "Rawson",
    "country": "AR",
    "lat": -43.2105,
    "lon": -65.2703
  },
  "VDM": {
    "name": "Gobernador Castello Airport",
    "city": "Viedma / Carmen de Patagones",
    "country": "AR",
    "lat": -40.8692,
    "lon": -63.0004
  },
  "PMY": {
    "name": "El Tehuelche Airport",
    "city": "Puerto Madryn",
    "country": "AR",
    "lat": -42.7592,
    "lon": -65.1027
  },
  "ING": {
    "name": "Lago Argentino Airport",
    "city": "El Calafate",
    "country": "AR",
    "lat": -50.336101532,
    "lon": -72.2485961914
  },
  "FTE": {
    "name": "El Calafate Airport",
    "city": "El Calafate",
    "country": "AR",
    "lat": -50.2803001404,
    "lon": -72.0531005859
  },
  "PUD": {
    "name": "Puerto Deseado Airport",
    "city": "Puerto Deseado",
    "country": "AR",
    "lat": -47.7353,
    "lon": -65.9041
  },
  "RGA": {
    "name": "Hermes Quijada International Airport",
    "city": "Rio Grande",
    "country": "AR",
    "lat": -53.7777,
    "lon": -67.7494
  },
  "RGL": {
    "name": "Piloto Civil N. Fernandez Airport",
    "city": "Rio Gallegos",
    "country": "AR",
    "lat": -51.6089,
    "lon": -69.3126
  },
  "USH": {
    "name": "Malvinas Argentinas Airport",
    "city": "Ushuahia",
    "country": "AR",
    "lat": -54.8433,
    "lon": -68.2958
  },
  "ULA": {
    "name": "Capitan D Daniel Vazquez Airport",
    "city": "San Julian",
    "country": "AR",
    "lat": -49.3068,
    "lon": -67.8026
  },
  "ROY": {
    "name": "Rio Mayo Airport",
    "city": "Rio Mayo",
    "country": "AR",
    "lat": -45.7038993835,
    "lon": -70.2455978394
  },
  "PMQ": {
    "name": "Perito Moreno Airport",
    "city": "Perito Moreno",
    "country": "AR",
    "lat": -46.5378990173,
    "lon": -70.9786987305
  },
  "GGS": {
    "name": "Gobernador Gregores Airport",
    "city": "Gobernador Gregores",
    "country": "AR",
    "lat": -48.7831001282,
    "lon": -70.1500015259
  },
  "JSM": {
    "name": "Jose De San Martin Airport",
    "city": "Chubut",
    "country": "AR",
    "lat": -44.0485992432,
    "lon": -70.4589004517
  },
  "RYO": {
    "name": "28 De Noviembre Airport",
    "city": "El Turbio",
    "country": "AR",
    "lat": -51.6091995239,
    "lon": -72.2217025757
  },
  "RZA": {
    "name": "Santa Cruz Airport",
    "city": "Santa Cruz",
    "country": "AR",
    "lat": -50.0165,
    "lon": -68.5792
  },
  "BHI": {
    "name": "Comandante Espora Airport",
    "city": "Bahia Blanca",
    "country": "AR",
    "lat": -38.725,
    "lon": -62.1693
  },
  "CSZ": {
    "name": "Brigadier D.H.E. Ruiz Airport",
    "city": "Coronel Suarez",
    "country": "AR",
    "lat": -37.4460983276,
    "lon": -61.8893013
  },
  "OVR": {
    "name": "Olavarria Airport",
    "city": "Olavarria",
    "country": "AR",
    "lat": -36.8899993896,
    "lon": -60.2165985107
  },
  "GPO": {
    "name": "General Pico Airport",
    "city": "General Pico",
    "country": "AR",
    "lat": -35.6962013245,
    "lon": -63.7583007812
  },
  "OYO": {
    "name": "Tres Arroyos Airport",
    "city": "Tres Arroyos",
    "country": "AR",
    "lat": -38.3869,
    "lon": -60.3297
  },
  "SST": {
    "name": "Santa Teresita Airport",
    "city": "Santa Teresita",
    "country": "AR",
    "lat": -36.5423,
    "lon": -56.7218
  },
  "MDQ": {
    "name": "Astor Piazzola International Airport",
    "city": "Mar del Plata",
    "country": "AR",
    "lat": -37.9342,
    "lon": -57.5733
  },
  "NQN": {
    "name": "Presidente Peron Airport",
    "city": "Neuquen",
    "country": "AR",
    "lat": -38.9490013123,
    "lon": -68.1557006836
  },
  "NEC": {
    "name": "Necochea Airport",
    "city": "Necochea",
    "country": "AR",
    "lat": -38.4831,
    "lon": -58.8172
  },
  "PEH": {
    "name": "Comodoro Pedro Zanni Airport",
    "city": "Pehuajo",
    "country": "AR",
    "lat": -35.8446,
    "lon": -61.8576
  },
  "RSA": {
    "name": "Santa Rosa Airport",
    "city": "Santa Rosa",
    "country": "AR",
    "lat": -36.5882987976,
    "lon": -64.2757034302
  },
  "BRC": {
    "name": "San Carlos De Bariloche Airport",
    "city": "San Carlos de Bariloche",
    "country": "AR",
    "lat": -41.1511993408,
    "lon": -71.1575012207
  },
  "TDL": {
    "name": "Heroes De Malvinas Airport",
    "city": "Tandil",
    "country": "AR",
    "lat": -37.2374000549,
    "lon": -59.2279014587
  },
  "VLG": {
    "name": "Villa Gesell Airport",
    "city": "Villa Gesell",
    "country": "AR",
    "lat": -37.2354,
    "lon": -57.0292
  },
  "CUT": {
    "name": "Cutral-Co Airport",
    "city": "Cutral-Co",
    "country": "AR",
    "lat": -38.9397010803,
    "lon": -69.2646026611
  },
  "CPC": {
    "name": "Aviador C. Campos Airport",
    "city": "Chapelco/San Martin de los Andes",
    "country": "AR",
    "lat": -40.0754013062,
    "lon": -71.137298584
  },
  "CDJ": {
    "name": "Conceicao do Araguaia Airport",
    "city": "Conceicao Do Araguaia",
    "country": "BR",
    "lat": -8.3483495712,
    "lon": -49.3014984131
  },
  "JTC": {
    "name": "Bauru-Arealva Airport",
    "city": "Bauru",
    "country": "BR",
    "lat": -22.15778,
    "lon": -49.06833
  },
  "AQA": {
    "name": "Araraquara Airport",
    "city": "Araraquara",
    "country": "BR",
    "lat": -21.8120002747,
    "lon": -48.1329994202
  },
  "AJU": {
    "name": "Santa Maria Airport",
    "city": "Aracaju",
    "country": "BR",
    "lat": -10.984000206,
    "lon": -37.0703010559
  },
  "AIF": {
    "name": "Marcelo Pires Halzhausen Airport",
    "city": "Assis",
    "country": "BR",
    "lat": -22.64,
    "lon": -50.453056
  },
  "AFL": {
    "name": "Alta Floresta Airport",
    "city": "Alta Floresta",
    "country": "BR",
    "lat": -9.8663892746,
    "lon": -56.1049995422
  },
  "ARU": {
    "name": "Aracatuba Airport",
    "city": "Aracatuba",
    "country": "BR",
    "lat": -21.1413002014,
    "lon": -50.4247016907
  },
  "AAX": {
    "name": "Araxa Airport",
    "city": "Araxa",
    "country": "BR",
    "lat": -19.5631999969,
    "lon": -46.9603996277
  },
  "BEL": {
    "name": "Val de Cans/Julio Cezar Ribeiro International Airport",
    "city": "Belem",
    "country": "BR",
    "lat": -1.3792500496,
    "lon": -48.4762992859
  },
  "BGX": {
    "name": "Comandante Gustavo Kraemer Airport",
    "city": "Bage",
    "country": "BR",
    "lat": -31.390499115,
    "lon": -54.1122016907
  },
  "PLU": {
    "name": "Pampulha - Carlos Drummond de Andrade Airport",
    "city": "Belo Horizonte",
    "country": "BR",
    "lat": -19.8512001038,
    "lon": -43.9505996704
  },
  "BFH": {
    "name": "Bacacheri Airport",
    "city": "Curitiba",
    "country": "BR",
    "lat": -25.4050998688,
    "lon": -49.2319984436
  },
  "BJP": {
    "name": "Aeroporto Estadual Arthur Siqueira Airport",
    "city": "Braganca Paulista",
    "country": "BR",
    "lat": -22.979167,
    "lon": -46.5375
  },
  "QAK": {
    "name": "Major Brigadeiro Doorgal Borges Airport",
    "city": "Barbacena",
    "country": "BR",
    "lat": -21.26720047,
    "lon": -43.761100769
  },
  "BSB": {
    "name": "Presidente Juscelino Kubistschek International Airport",
    "city": "Brasilia",
    "country": "BR",
    "lat": -15.8691673279,
    "lon": -47.9208335876
  },
  "BAT": {
    "name": "Chafei Amsei Airport",
    "city": "Barretos",
    "country": "BR",
    "lat": -20.5844993591,
    "lon": -48.5941009521
  },
  "BAU": {
    "name": "Bauru Airport",
    "city": "Bauru",
    "country": "BR",
    "lat": -22.3449993134,
    "lon": -49.0537986755
  },
  "BVB": {
    "name": "Atlas Brasil Cantanhede Airport",
    "city": "Boa Vista",
    "country": "BR",
    "lat": 2.8413889408,
    "lon": -60.6922225952
  },
  "BPG": {
    "name": "Barra do Garcas Airport",
    "city": "Barra Do Garcas",
    "country": "BR",
    "lat": -15.8613004684,
    "lon": -52.3889007568
  },
  "BZC": {
    "name": "Umberto Modiano Airport",
    "city": "Cabo Frio",
    "country": "BR",
    "lat": -22.7709999084,
    "lon": -41.9628982544
  },
  "CAC": {
    "name": "Cascavel Airport",
    "city": "Cascavel",
    "country": "BR",
    "lat": -25.0002994537,
    "lon": -53.5008010864
  },
  "CFB": {
    "name": "Cabo Frio Airport",
    "city": "Cabo Frio",
    "country": "BR",
    "lat": -22.9216995239,
    "lon": -42.0742988586
  },
  "CFC": {
    "name": "Caçador Airport",
    "city": "Caçador",
    "country": "BR",
    "lat": -26.788056,
    "lon": -50.939999
  },
  "CNF": {
    "name": "Tancredo Neves International Airport",
    "city": "Belo Horizonte",
    "country": "BR",
    "lat": -19.6244430542,
    "lon": -43.9719429016
  },
  "CGR": {
    "name": "Campo Grande Airport",
    "city": "Campo Grande",
    "country": "BR",
    "lat": -20.4687004089,
    "lon": -54.6725006104
  },
  "XAP": {
    "name": "Chapeco Airport",
    "city": "Chapeco",
    "country": "BR",
    "lat": -27.1341991425,
    "lon": -52.6566009521
  },
  "CLN": {
    "name": "Brig. Lysias Augusto Rodrigues Airport",
    "city": "Carolina",
    "country": "BR",
    "lat": -7.3204398155,
    "lon": -47.4586982727
  },
  "CKS": {
    "name": "Carajas Airport",
    "city": "Carajas",
    "country": "BR",
    "lat": -6.1152777672,
    "lon": -50.0013885498
  },
  "CCM": {
    "name": "Forquilhinha - Criciuma Airport",
    "city": "Criciuma",
    "country": "BR",
    "lat": -28.7244434357,
    "lon": -49.4213905334
  },
  "CLV": {
    "name": "Caldas Novas Airport",
    "city": "Caldas Novas",
    "country": "BR",
    "lat": -17.7252998352,
    "lon": -48.6074981689
  },
  "QNS": {
    "name": "Canoas Airport",
    "city": "Porto Alegre",
    "country": "BR",
    "lat": -29.9458999634,
    "lon": -51.1444015503
  },
  "CAW": {
    "name": "Bartolomeu Lisandro Airport",
    "city": "Campos Dos Goytacazes",
    "country": "BR",
    "lat": -21.698299408,
    "lon": -41.301700592
  },
  "CMG": {
    "name": "Corumba International Airport",
    "city": "Corumba",
    "country": "BR",
    "lat": -19.0119438171,
    "lon": -57.6713905334
  },
  "CWB": {
    "name": "Afonso Pena Airport",
    "city": "Curitiba",
    "country": "BR",
    "lat": -25.5284996033,
    "lon": -49.1758003235
  },
  "CRQ": {
    "name": "Caravelas Airport",
    "city": "Caravelas",
    "country": "BR",
    "lat": -17.652299881,
    "lon": -39.2531013489
  },
  "CXJ": {
    "name": "Campo dos Bugres Airport",
    "city": "Caxias Do Sul",
    "country": "BR",
    "lat": -29.1970996857,
    "lon": -51.1875
  },
  "CGB": {
    "name": "Marechal Rondon Airport",
    "city": "Cuiaba",
    "country": "BR",
    "lat": -15.6528997421,
    "lon": -56.1166992188
  },
  "CZS": {
    "name": "Cruzeiro do Sul Airport",
    "city": "Cruzeiro Do Sul",
    "country": "BR",
    "lat": -7.5999097824,
    "lon": -72.7695007324
  },
  "BYO": {
    "name": "Bonito Airport",
    "city": "Bonito",
    "country": "BR",
    "lat": -21.2294445038,
    "lon": -56.456111908
  },
  "PPB": {
    "name": "Presidente Prudente Airport",
    "city": "Presidente Prudente",
    "country": "BR",
    "lat": -22.1751003265,
    "lon": -51.4245986938
  },
  "MAO": {
    "name": "Eduardo Gomes International Airport",
    "city": "Manaus",
    "country": "BR",
    "lat": -3.0386099815,
    "lon": -60.0497016907
  },
  "JCR": {
    "name": "Jacareacanga Airport",
    "city": "Jacareacanga",
    "country": "BR",
    "lat": -6.2331600189,
    "lon": -57.7769012451
  },
  "ESI": {
    "name": "Espinosa Airport",
    "city": "Espinosa",
    "country": "BR",
    "lat": -14.9336944444,
    "lon": -42.81
  },
  "IGU": {
    "name": "Cataratas International Airport",
    "city": "Foz Do Iguacu",
    "country": "BR",
    "lat": -25.6002788544,
    "lon": -54.4850006104
  },
  "FLN": {
    "name": "Hercilio Luz International Airport",
    "city": "Florianopolis",
    "country": "BR",
    "lat": -27.6702785492,
    "lon": -48.5525016785
  },
  "FEN": {
    "name": "Fernando de Noronha Airport",
    "city": "Fernando De Noronha",
    "country": "BR",
    "lat": -3.854929924,
    "lon": -32.4233016968
  },
  "FOR": {
    "name": "Pinto Martins International Airport",
    "city": "Fortaleza",
    "country": "BR",
    "lat": -3.7762799263,
    "lon": -38.5326004028
  },
  "GIG": {
    "name": "Galeao - Antonio Carlos Jobim International Airport",
    "city": "Rio De Janeiro",
    "country": "BR",
    "lat": -22.8099994659,
    "lon": -43.2505569458
  },
  "GJM": {
    "name": "Guajara-Mirim Airport",
    "city": "Guajara-Mirim",
    "country": "BR",
    "lat": -10.7863998413,
    "lon": -65.2847976685
  },
  "GYN": {
    "name": "Santa Genoveva Airport",
    "city": "Goiania",
    "country": "BR",
    "lat": -16.6319999695,
    "lon": -49.2206993103
  },
  "GRU": {
    "name": "Guarulhos - Governador Andre Franco Montoro International Airport",
    "city": "Sao Paulo",
    "country": "BR",
    "lat": -23.4355564117,
    "lon": -46.4730567932
  },
  "GPB": {
    "name": "Tancredo Thomas de Faria Airport",
    "city": "Guarapuava",
    "country": "BR",
    "lat": -25.3875007629,
    "lon": -51.520198822
  },
  "GVR": {
    "name": "Governador Valadares Airport",
    "city": "Governador Valadares",
    "country": "BR",
    "lat": -18.8952007294,
    "lon": -41.9822006226
  },
  "GUJ": {
    "name": "Guaratingueta Airport",
    "city": "Guaratingueta",
    "country": "BR",
    "lat": -22.7915992737,
    "lon": -45.2047996521
  },
  "ATM": {
    "name": "Altamira Airport",
    "city": "Altamira",
    "country": "BR",
    "lat": -3.2539100647,
    "lon": -52.2540016174
  },
  "ITA": {
    "name": "Itacoatiara Airport",
    "city": "Itacoatiara",
    "country": "BR",
    "lat": -3.1272599697,
    "lon": -58.4812011719
  },
  "ITB": {
    "name": "Itaituba Airport",
    "city": "Itaituba",
    "country": "BR",
    "lat": -4.2423400879,
    "lon": -56.0007019043
  },
  "IOS": {
    "name": "Bahia - Jorge Amado Airport",
    "city": "Ilheus",
    "country": "BR",
    "lat": -14.8159999847,
    "lon": -39.0331993103
  },
  "IPN": {
    "name": "Usiminas Airport",
    "city": "Ipatinga",
    "country": "BR",
    "lat": -19.4706993103,
    "lon": -42.4875984192
  },
  "IMP": {
    "name": "Prefeito Renato Moreira Airport",
    "city": "Imperatriz",
    "country": "BR",
    "lat": -5.5312900543,
    "lon": -47.4599990845
  },
  "JJD": {
    "name": "Comte. Ariston Pessoa Regional Airport",
    "city": "Jijoca de Jericoacoara",
    "country": "BR",
    "lat": -2.906667,
    "lon": -40.358056
  },
  "JDF": {
    "name": "Francisco de Assis Airport",
    "city": "Juiz De Fora",
    "country": "BR",
    "lat": -21.7915000916,
    "lon": -43.3867988586
  },
  "JHF": {
    "name": "São Paulo Catarina Executive Airport",
    "city": "São Roque",
    "country": "BR",
    "lat": -23.426944,
    "lon": -47.165833
  },
  "JPA": {
    "name": "Presidente Castro Pinto Airport",
    "city": "Joao Pessoa",
    "country": "BR",
    "lat": -7.1458330154,
    "lon": -34.9486122131
  },
  "JDO": {
    "name": "Orlando Bezerra de Menezes Airport",
    "city": "Juazeiro Do Norte",
    "country": "BR",
    "lat": -7.2189598084,
    "lon": -39.2700996399
  },
  "JOI": {
    "name": "Lauro Carneiro de Loyola Airport",
    "city": "Joinville",
    "country": "BR",
    "lat": -26.2245006561,
    "lon": -48.7974014282
  },
  "CPV": {
    "name": "Presidente Joao Suassuna Airport",
    "city": "Campina Grande",
    "country": "BR",
    "lat": -7.2699198723,
    "lon": -35.8964004517
  },
  "VCP": {
    "name": "Viracopos International Airport",
    "city": "Campinas",
    "country": "BR",
    "lat": -23.0074005127,
    "lon": -47.1344985962
  },
  "LEC": {
    "name": "Chapada Diamantina Airport",
    "city": "Lencois",
    "country": "BR",
    "lat": -12.4822998047,
    "lon": -41.2770004272
  },
  "LAJ": {
    "name": "Lages Airport",
    "city": "Lages",
    "country": "BR",
    "lat": -27.7821006775,
    "lon": -50.28150177
  },
  "LIP": {
    "name": "Lins Airport",
    "city": "Lins",
    "country": "BR",
    "lat": -21.6639995575,
    "lon": -49.7304992676
  },
  "LDB": {
    "name": "Governador Jose Richa Airport",
    "city": "Londrina",
    "country": "BR",
    "lat": -23.3335990906,
    "lon": -51.1301002502
  },
  "LAZ": {
    "name": "Bom Jesus da Lapa Airport",
    "city": "Bom Jesus Da Lapa",
    "country": "BR",
    "lat": -13.2621002197,
    "lon": -43.4081001282
  },
  "MAB": {
    "name": "Maraba Airport",
    "city": "Maraba",
    "country": "BR",
    "lat": -5.3685898781,
    "lon": -49.1380004883
  },
  "MQH": {
    "name": "Minacu Airport",
    "city": "Minacu",
    "country": "BR",
    "lat": -13.5490999222,
    "lon": -48.1953010559
  },
  "MEU": {
    "name": "Monte Dourado Airport",
    "city": "Almeirim",
    "country": "BR",
    "lat": -0.8898389935,
    "lon": -52.6021995544
  },
  "MEA": {
    "name": "Macae Airport",
    "city": "Macae",
    "country": "BR",
    "lat": -22.343000412,
    "lon": -41.7659988403
  },
  "MGF": {
    "name": "Regional de Maringa - Silvio Nane Junior Airport",
    "city": "Maringa",
    "country": "BR",
    "lat": -23.4794445038,
    "lon": -52.01222229
  },
  "MOC": {
    "name": "Mario Ribeiro Airport",
    "city": "Montes Claros",
    "country": "BR",
    "lat": -16.7068996429,
    "lon": -43.818901062
  },
  "MII": {
    "name": "Marilia Airport",
    "city": "Marilia",
    "country": "BR",
    "lat": -22.1968994141,
    "lon": -49.926399231
  },
  "PLL": {
    "name": "Ponta Pelada Airport",
    "city": "Manaus",
    "country": "BR",
    "lat": -3.1460399628,
    "lon": -59.9863014221
  },
  "MCZ": {
    "name": "Zumbi dos Palmares Airport",
    "city": "Maceio",
    "country": "BR",
    "lat": -9.5108098984,
    "lon": -35.7916984558
  },
  "MCP": {
    "name": "Alberto Alcolumbre Airport",
    "city": "Macapa",
    "country": "BR",
    "lat": 0.0506640002,
    "lon": -51.0722007751
  },
  "MVF": {
    "name": "Dix-Sept Rosado Airport",
    "city": "Mossoro",
    "country": "BR",
    "lat": -5.2019200325,
    "lon": -37.3642997742
  },
  "SAO": {
    "name": "Campo de Marte Airport",
    "city": "Sao Paulo",
    "country": "BR",
    "lat": -23.5090999603,
    "lon": -46.6377983093
  },
  "MNX": {
    "name": "Manicore Airport",
    "city": "Manicore",
    "country": "BR",
    "lat": -5.8113799095,
    "lon": -61.278301239
  },
  "NVT": {
    "name": "Ministro Victor Konder International Airport",
    "city": "Navegantes",
    "country": "BR",
    "lat": -26.8799991608,
    "lon": -48.6514015198
  },
  "GEL": {
    "name": "Santo Angelo Airport",
    "city": "Santo Angelo",
    "country": "BR",
    "lat": -28.2817001343,
    "lon": -54.1691017151
  },
  "NAT": {
    "name": "Augusto Severo Airport",
    "city": "Natal",
    "country": "BR",
    "lat": -5.9114198685,
    "lon": -35.2476997375
  },
  "OYK": {
    "name": "Oiapoque Airport",
    "city": "Oiapoque",
    "country": "BR",
    "lat": 3.8554899693,
    "lon": -51.7969017029
  },
  "POA": {
    "name": "Salgado Filho Airport",
    "city": "Porto Alegre",
    "country": "BR",
    "lat": -29.9944000244,
    "lon": -51.1713981628
  },
  "PHB": {
    "name": "Prefeito Doutor Joao Silva Filho Airport",
    "city": "Parnaiba",
    "country": "BR",
    "lat": -2.8937499523,
    "lon": -41.7319984436
  },
  "POO": {
    "name": "Pocos de Caldas Airport",
    "city": "Pocos De Caldas",
    "country": "BR",
    "lat": -21.843000412,
    "lon": -46.5679016113
  },
  "PFB": {
    "name": "Lauro Kurtz Airport",
    "city": "Passo Fundo",
    "country": "BR",
    "lat": -28.2439994812,
    "lon": -52.3265991211
  },
  "PMW": {
    "name": "Brigadeiro Lysias Rodrigues Airport",
    "city": "Palmas",
    "country": "BR",
    "lat": -10.2915000916,
    "lon": -48.3569984436
  },
  "PET": {
    "name": "Pelotas Airport",
    "city": "Pelotas",
    "country": "BR",
    "lat": -31.7183990479,
    "lon": -52.3277015686
  },
  "PNZ": {
    "name": "Senador Nilo Coelho Airport",
    "city": "Petrolina",
    "country": "BR",
    "lat": -9.3624095917,
    "lon": -40.5690994263
  },
  "PNB": {
    "name": "Porto Nacional Airport",
    "city": "Porto Nacional",
    "country": "BR",
    "lat": -10.7194004059,
    "lon": -48.3997001648
  },
  "PMG": {
    "name": "Ponta Pora Airport",
    "city": "Ponta Pora",
    "country": "BR",
    "lat": -22.5496006012,
    "lon": -55.7025985718
  },
  "BPS": {
    "name": "Porto Seguro Airport",
    "city": "Porto Seguro",
    "country": "BR",
    "lat": -16.4386005402,
    "lon": -39.0808982849
  },
  "PVH": {
    "name": "Governador Jorge Teixeira de Oliveira Airport",
    "city": "Porto Velho",
    "country": "BR",
    "lat": -8.7092895508,
    "lon": -63.9023017883
  },
  "RBR": {
    "name": "Placido de Castro Airport",
    "city": "Rio Branco",
    "country": "BR",
    "lat": -9.868888855,
    "lon": -67.8980560303
  },
  "REC": {
    "name": "Guararapes - Gilberto Freyre International Airport",
    "city": "Recife",
    "country": "BR",
    "lat": -8.1264896393,
    "lon": -34.9235992432
  },
  "SDU": {
    "name": "Santos Dumont Airport",
    "city": "Rio De Janeiro",
    "country": "BR",
    "lat": -22.9104995728,
    "lon": -43.1631011963
  },
  "RAO": {
    "name": "Leite Lopes Airport",
    "city": "Ribeirao Preto",
    "country": "BR",
    "lat": -21.1363887787,
    "lon": -47.7766685486
  },
  "BRB": {
    "name": "Barreirinhas Airport",
    "city": "",
    "country": "BR",
    "lat": -2.7555555556,
    "lon": -42.81
  },
  "SNZ": {
    "name": "Santa Cruz Airport",
    "city": "Rio De Janeiro",
    "country": "BR",
    "lat": -22.9323997498,
    "lon": -43.7191009521
  },
  "SJK": {
    "name": "Professor Urbano Ernesto Stumpf Airport",
    "city": "Sao Jose Dos Campos",
    "country": "BR",
    "lat": -23.2292003632,
    "lon": -45.8614997864
  },
  "SLZ": {
    "name": "Marechal Cunha Machado International Airport",
    "city": "Sao Luis",
    "country": "BR",
    "lat": -2.5853600502,
    "lon": -44.2341003418
  },
  "RIA": {
    "name": "Santa Maria Airport",
    "city": "Santa Maria",
    "country": "BR",
    "lat": -29.7113990784,
    "lon": -53.6882019043
  },
  "STM": {
    "name": "Maestro Wilson Fonseca Airport",
    "city": "Santarem",
    "country": "BR",
    "lat": -2.4247219563,
    "lon": -54.7858314514
  },
  "CGH": {
    "name": "Congonhas Airport",
    "city": "Sao Paulo",
    "country": "BR",
    "lat": -23.6261100769,
    "lon": -46.6563873291
  },
  "SJP": {
    "name": "Sao Jose do Rio Preto Airport",
    "city": "Sao Jose Do Rio Preto",
    "country": "BR",
    "lat": -20.8166007996,
    "lon": -49.40650177
  },
  "SSZ": {
    "name": "Base Aerea de Santos Airport",
    "city": "Guaruja",
    "country": "BR",
    "lat": -23.9280567169,
    "lon": -46.2997207642
  },
  "SSA": {
    "name": "Deputado Luiz Eduardo Magalhaes International Airport",
    "city": "Salvador",
    "country": "BR",
    "lat": -12.908623960607166,
    "lon": -38.3228798872924
  },
  "QHP": {
    "name": "Base de Aviacao de Taubate Airport",
    "city": "Taubate",
    "country": "BR",
    "lat": -23.0401000977,
    "lon": -45.5159988403
  },
  "TMT": {
    "name": "Trombetas Airport",
    "city": "Oriximina",
    "country": "BR",
    "lat": -1.4895999432,
    "lon": -56.3968009949
  },
  "UNA": {
    "name": "Hotel Transamerica Airport",
    "city": "Una",
    "country": "BR",
    "lat": -15.3551998138,
    "lon": -38.9990005493
  },
  "TOW": {
    "name": "Toledo Airport",
    "city": "Toledo",
    "country": "BR",
    "lat": -24.6863002777,
    "lon": -53.6974983215
  },
  "THE": {
    "name": "Senador Petronio Portela Airport",
    "city": "Teresina",
    "country": "BR",
    "lat": -5.0599398613,
    "lon": -42.8235015869
  },
  "TFF": {
    "name": "Tefe Airport",
    "city": "Tefe",
    "country": "BR",
    "lat": -3.3829400539,
    "lon": -64.7240982056
  },
  "TJL": {
    "name": "Plinio Alarcom Airport",
    "city": "Tres Lagoas",
    "country": "BR",
    "lat": -20.754444,
    "lon": -51.683889
  },
  "TRQ": {
    "name": "Tarauaca Airport",
    "city": "Tarauaca",
    "country": "BR",
    "lat": -8.1552600861,
    "lon": -70.7833023071
  },
  "TEC": {
    "name": "Telemaco Borba Airport",
    "city": "Telemaco Borba",
    "country": "BR",
    "lat": -24.3178005219,
    "lon": -50.651599884
  },
  "TBT": {
    "name": "Tabatinga Airport",
    "city": "Tabatinga",
    "country": "BR",
    "lat": -4.2556700706,
    "lon": -69.935798645
  },
  "TUR": {
    "name": "Tucurui Airport",
    "city": "Tucurui",
    "country": "BR",
    "lat": -3.7860100269,
    "lon": -49.7202987671
  },
  "SJL": {
    "name": "Sao Gabriel da Cachoeira Airport",
    "city": "Sao Gabriel Da Cachoeira",
    "country": "BR",
    "lat": -0.14835,
    "lon": -66.9855
  },
  "PAV": {
    "name": "Paulo Afonso Airport",
    "city": "Paulo Afonso",
    "country": "BR",
    "lat": -9.4008798599,
    "lon": -38.2505989075
  },
  "URG": {
    "name": "Rubem Berta Airport",
    "city": "Uruguaiana",
    "country": "BR",
    "lat": -29.7821998596,
    "lon": -57.0382003784
  },
  "UDI": {
    "name": "Ten. Cel. Aviador Cesar Bombonato Airport",
    "city": "Uberlandia",
    "country": "BR",
    "lat": -18.8836116791,
    "lon": -48.225276947
  },
  "UBA": {
    "name": "Mario de Almeida Franco Airport",
    "city": "Uberaba",
    "country": "BR",
    "lat": -19.7647228241,
    "lon": -47.9661102295
  },
  "VDC": {
    "name": "Glauber Rocha Airport",
    "city": "Vitória da Conquista",
    "country": "BR",
    "lat": -14.907778,
    "lon": -40.914722
  },
  "VAG": {
    "name": "Major Brigadeiro Trompowsky Airport",
    "city": "Varginha",
    "country": "BR",
    "lat": -21.5900993347,
    "lon": -45.4733009338
  },
  "BVH": {
    "name": "Vilhena Airport",
    "city": "Vilhena",
    "country": "BR",
    "lat": -12.6943998337,
    "lon": -60.0983009338
  },
  "VIX": {
    "name": "Eurico de Aguiar Salles Airport",
    "city": "Vitoria",
    "country": "BR",
    "lat": -20.2580566406,
    "lon": -40.2863883972
  },
  "QPS": {
    "name": "Campo Fontenelle Airport",
    "city": "Pirassununga",
    "country": "BR",
    "lat": -21.9846000671,
    "lon": -47.3348007202
  },
  "IZA": {
    "name": "Zona da Mata Regional Airport",
    "city": "Juiz De Fora",
    "country": "BR",
    "lat": -21.5130558014,
    "lon": -43.1730575562
  },
  "ZUD": {
    "name": "Pupelde Airport",
    "city": "Ancud",
    "country": "CL",
    "lat": -41.9039001465,
    "lon": -73.7966995239
  },
  "LOB": {
    "name": "San Rafael Airport",
    "city": "Los Andes",
    "country": "CL",
    "lat": -32.814201355,
    "lon": -70.646697998
  },
  "WAP": {
    "name": "Alto Palena Airport",
    "city": "Alto Palena",
    "country": "CL",
    "lat": -43.6119003296,
    "lon": -71.806098938
  },
  "ARI": {
    "name": "Chacalluta Airport",
    "city": "Arica",
    "country": "CL",
    "lat": -18.3484992981,
    "lon": -70.3386993408
  },
  "WPA": {
    "name": "Cabo 1° Juan Roman Airport",
    "city": "Puerto Aysen",
    "country": "CL",
    "lat": -45.3992004395,
    "lon": -72.6703033447
  },
  "CPO": {
    "name": "Desierto de Atacama Airport",
    "city": "Copiapo",
    "country": "CL",
    "lat": -27.2611999512,
    "lon": -70.7791976929
  },
  "BBA": {
    "name": "Balmaceda Airport",
    "city": "Balmaceda",
    "country": "CL",
    "lat": -45.9160995483,
    "lon": -71.6894989014
  },
  "TOQ": {
    "name": "Barriles Airport",
    "city": "Tocopilla",
    "country": "CL",
    "lat": -22.1410999298,
    "lon": -70.0628967285
  },
  "CCH": {
    "name": "Chile Chico Airport",
    "city": "Chile Chico",
    "country": "CL",
    "lat": -46.5833015442,
    "lon": -71.6874008179
  },
  "CJC": {
    "name": "El Loa Airport",
    "city": "Calama",
    "country": "CL",
    "lat": -22.4981994629,
    "lon": -68.9036026001
  },
  "YAI": {
    "name": "Gral. Bernardo O´Higgins Airport",
    "city": "Chillan",
    "country": "CL",
    "lat": -36.5825004578,
    "lon": -72.0314025879
  },
  "PUQ": {
    "name": "Pdte. Carlos Ibanez del Campo Airport",
    "city": "Punta Arenas",
    "country": "CL",
    "lat": -53.0026016235,
    "lon": -70.854598999
  },
  "COW": {
    "name": "Tambillos Airport",
    "city": "Coquimbo",
    "country": "CL",
    "lat": -30.198889,
    "lon": -71.246944
  },
  "GXQ": {
    "name": "Teniente Vidal Airport",
    "city": "Coyhaique",
    "country": "CL",
    "lat": -45.5942001343,
    "lon": -72.1061019897
  },
  "IQQ": {
    "name": "Diego Aracena Airport",
    "city": "Iquique",
    "country": "CL",
    "lat": -20.535200119,
    "lon": -70.1812973022
  },
  "SCL": {
    "name": "Comodoro Arturo Merino Benitez International Airport",
    "city": "Santiago",
    "country": "CL",
    "lat": -33.3930015564,
    "lon": -70.7857971191
  },
  "ESR": {
    "name": "Ricardo Garcia Posada Airport",
    "city": "El Salvador",
    "country": "CL",
    "lat": -26.3111000061,
    "lon": -69.7651977539
  },
  "ANF": {
    "name": "Cerro Moreno Airport",
    "city": "Antofagasta",
    "country": "CL",
    "lat": -23.4444999695,
    "lon": -70.445098877
  },
  "WPR": {
    "name": "Capitan Fuentes Martinez Airport Airport",
    "city": "Porvenir",
    "country": "CL",
    "lat": -53.2537002563,
    "lon": -70.3191986084
  },
  "FRT": {
    "name": "Frutillar Airport",
    "city": "Frutillar",
    "country": "CL",
    "lat": -41.1308326721,
    "lon": -73.0647201538
  },
  "FFU": {
    "name": "Futaleufu Airport",
    "city": "Futaleufu",
    "country": "CL",
    "lat": -43.189201355,
    "lon": -71.8510971069
  },
  "LSQ": {
    "name": "Maria Dolores Airport",
    "city": "Los Angeles",
    "country": "CL",
    "lat": -37.4016990662,
    "lon": -72.4253997803
  },
  "WPU": {
    "name": "Guardiamarina Zanartu Airport",
    "city": "Puerto Williams",
    "country": "CL",
    "lat": -54.931098938,
    "lon": -67.6262969971
  },
  "LGR": {
    "name": "Cochrane Airport",
    "city": "Cochrane",
    "country": "CL",
    "lat": -47.2438011169,
    "lon": -72.5884017944
  },
  "CCP": {
    "name": "Carriel Sur Airport",
    "city": "Concepcion",
    "country": "CL",
    "lat": -36.7727012634,
    "lon": -73.0631027222
  },
  "IPC": {
    "name": "Mataveri Airport",
    "city": "Isla De Pascua",
    "country": "CL",
    "lat": -27.1648006439,
    "lon": -109.42199707
  },
  "ZOS": {
    "name": "Canal Bajo Carlos - Hott Siebert Airport",
    "city": "Osorno",
    "country": "CL",
    "lat": -40.6111984253,
    "lon": -73.0609970093
  },
  "CPP": {
    "name": "Coposa Airport",
    "city": "Pica",
    "country": "CL",
    "lat": -20.7504997253,
    "lon": -68.6835021973
  },
  "VLR": {
    "name": "Vallenar Airport",
    "city": "Vallenar",
    "country": "CL",
    "lat": -28.5963993073,
    "lon": -70.7559967041
  },
  "ZLR": {
    "name": "Municipal de Linares Airport",
    "city": "Linares",
    "country": "CL",
    "lat": -35.8616981506,
    "lon": -71.5485992432
  },
  "PNT": {
    "name": "Tte. Julio Gallardo Airport",
    "city": "Puerto Natales",
    "country": "CL",
    "lat": -51.6715011597,
    "lon": -72.5283966064
  },
  "OVL": {
    "name": "El Tuqui Airport",
    "city": "Ovalle",
    "country": "CL",
    "lat": -30.5592002869,
    "lon": -71.1755981445
  },
  "ZPC": {
    "name": "Pucon Airport",
    "city": "Pucon",
    "country": "CL",
    "lat": -39.2928009033,
    "lon": -71.9159011841
  },
  "MHC": {
    "name": "Mocopulli Airport",
    "city": "Dalcahue",
    "country": "CL",
    "lat": -42.340278,
    "lon": -73.715556
  },
  "PUX": {
    "name": "El Mirador Airport",
    "city": "Puerto Varas",
    "country": "CL",
    "lat": -41.3493995667,
    "lon": -72.9467010498
  },
  "CNR": {
    "name": "Chanaral Airport",
    "city": "Chanaral",
    "country": "CL",
    "lat": -26.3325004578,
    "lon": -70.6072998047
  },
  "VAP": {
    "name": "Rodelillo Airport",
    "city": "Vina Del Mar",
    "country": "CL",
    "lat": -33.0680999756,
    "lon": -71.5575027466
  },
  "QRC": {
    "name": "De La Independencia Airport",
    "city": "Rancagua",
    "country": "CL",
    "lat": -34.1736984253,
    "lon": -70.7757034302
  },
  "SMB": {
    "name": "Franco Bianco Airport",
    "city": "Cerro Sombrero",
    "country": "CL",
    "lat": -52.7366981506,
    "lon": -69.3336029053
  },
  "LSC": {
    "name": "La Florida Airport",
    "city": "La Serena-Coquimbo",
    "country": "CL",
    "lat": -29.9162006378,
    "lon": -71.1995010376
  },
  "SSD": {
    "name": "Victor Lafon Airport",
    "city": "San Felipe",
    "country": "CL",
    "lat": -32.7458000183,
    "lon": -70.7050018311
  },
  "WCA": {
    "name": "Gamboa Airport",
    "city": "Castro",
    "country": "CL",
    "lat": -42.4902992249,
    "lon": -73.7727966309
  },
  "ZCO": {
    "name": "Maquehue Airport",
    "city": "Temuco",
    "country": "CL",
    "lat": -38.7667999268,
    "lon": -72.6371002197
  },
  "PMC": {
    "name": "El Tepual Airport",
    "city": "Puerto Montt",
    "country": "CL",
    "lat": -41.4388999939,
    "lon": -73.09400177
  },
  "TLX": {
    "name": "Panguilemo Airport",
    "city": "Talca",
    "country": "CL",
    "lat": -35.3777999878,
    "lon": -71.6016998291
  },
  "WCH": {
    "name": "Chaiten Airport",
    "city": "Chaiten",
    "country": "CL",
    "lat": -42.932800293,
    "lon": -72.6990966797
  },
  "ZIC": {
    "name": "Victoria Airport",
    "city": "Victoria",
    "country": "CL",
    "lat": -38.2456016541,
    "lon": -72.3486022949
  },
  "TTC": {
    "name": "Las Breas Airport",
    "city": "Taltal",
    "country": "CL",
    "lat": -25.5643005371,
    "lon": -70.3759002686
  },
  "ZAL": {
    "name": "Pichoy Airport",
    "city": "Valdivia",
    "country": "CL",
    "lat": -39.6500015259,
    "lon": -73.0860977173
  },
  "KNA": {
    "name": "Vina del mar Airport",
    "city": "Vina Del Mar",
    "country": "CL",
    "lat": -32.9496002197,
    "lon": -71.4785995483
  },
  "CPQ": {
    "name": "Amarais Airport",
    "city": "Campinas",
    "country": "BR",
    "lat": -22.8591995239,
    "lon": -47.1082000732
  },
  "QCJ": {
    "name": "Botucatu Airport",
    "city": "Botucatu",
    "country": "BR",
    "lat": -22.9395008087,
    "lon": -48.4679985046
  },
  "OLC": {
    "name": "Senadora Eunice Micheles Airport",
    "city": "Sao Paulo De Olivenca",
    "country": "BR",
    "lat": -3.4679295077,
    "lon": -68.9204120636
  },
  "SOD": {
    "name": "Sorocaba Airport",
    "city": "Sorocaba",
    "country": "BR",
    "lat": -23.4780006409,
    "lon": -47.4900016785
  },
  "QDC": {
    "name": "Dracena Airport",
    "city": "Dracena",
    "country": "BR",
    "lat": -21.4605007172,
    "lon": -51.6068992615
  },
  "JLS": {
    "name": "Jales Airport",
    "city": "Jales",
    "country": "BR",
    "lat": -20.2929992676,
    "lon": -50.5463981628
  },
  "QOA": {
    "name": "Mococa Airport",
    "city": "Mococa",
    "country": "BR",
    "lat": -21.4878005981,
    "lon": -47.0344009399
  },
  "PBA": {
    "name": "Fazenda Pontal Airport",
    "city": "Cairu",
    "country": "BR",
    "lat": -13.5648002625,
    "lon": -38.9399986267
  },
  "QGC": {
    "name": "Lencois Paulista Airport",
    "city": "Lencois Paulista",
    "country": "BR",
    "lat": -22.5783996582,
    "lon": -48.7746009827
  },
  "QNV": {
    "name": "Aeroclube Airport",
    "city": "Nova Iguacu",
    "country": "BR",
    "lat": -22.745300293,
    "lon": -43.4603004456
  },
  "OUS": {
    "name": "Ourinhos Airport",
    "city": "Ourinhos",
    "country": "BR",
    "lat": -22.9664993286,
    "lon": -49.9132995605
  },
  "OIA": {
    "name": "Ourilandia do Norte Airport",
    "city": "Ourilandia Do Norte",
    "country": "BR",
    "lat": -6.7631001472,
    "lon": -51.0499000549
  },
  "QHB": {
    "name": "Piracicaba Airport",
    "city": "Piracicaba",
    "country": "BR",
    "lat": -22.7115001678,
    "lon": -47.6181983948
  },
  "QIQ": {
    "name": "Rio Claro Airport",
    "city": "Rio Claro",
    "country": "BR",
    "lat": -22.4311008453,
    "lon": -47.564201355
  },
  "QVP": {
    "name": "Avare-Arandu Airport",
    "city": "Avare",
    "country": "BR",
    "lat": -23.0925006866,
    "lon": -48.9874000549
  },
  "QRZ": {
    "name": "Resende Airport",
    "city": "Resende",
    "country": "BR",
    "lat": -22.4785003662,
    "lon": -44.4803009033
  },
  "QSC": {
    "name": "Sao Carlos Airport",
    "city": "Sao Carlos",
    "country": "BR",
    "lat": -21.8754005432,
    "lon": -47.9037017822
  },
  "UBT": {
    "name": "Ubatuba Airport",
    "city": "Ubatuba",
    "country": "BR",
    "lat": -23.4410991669,
    "lon": -45.0755996704
  },
  "ITP": {
    "name": "Itaperuna Airport",
    "city": "Itaperuna",
    "country": "BR",
    "lat": -21.2192993164,
    "lon": -41.8759002686
  },
  "QGS": {
    "name": "Alagoinhas Airport",
    "city": "Alagoinhas",
    "country": "BR",
    "lat": -12.1751003265,
    "lon": -38.3801994324
  },
  "VOT": {
    "name": "Votuporanga Airport",
    "city": "Votuporanga",
    "country": "BR",
    "lat": -20.4631996155,
    "lon": -50.0045013428
  },
  "ALT": {
    "name": "Alenquer Airport",
    "city": "Alenquer",
    "country": "BR",
    "lat": -1.916944,
    "lon": -54.722778
  },
  "QGB": {
    "name": "Limeira Airport",
    "city": "Limeira",
    "country": "BR",
    "lat": -22.603889,
    "lon": -47.411944
  },
  "ATF": {
    "name": "Chachoan Airport",
    "city": "Ambato",
    "country": "EC",
    "lat": -1.2120699883,
    "lon": -78.5746002197
  },
  "OCC": {
    "name": "Francisco De Orellana Airport",
    "city": "Coca",
    "country": "EC",
    "lat": -0.4628860056,
    "lon": -76.9868011475
  },
  "CUE": {
    "name": "Mariscal Lamar Airport",
    "city": "Cuenca",
    "country": "EC",
    "lat": -2.8894701004,
    "lon": -78.9843978882
  },
  "GPS": {
    "name": "Seymour Airport",
    "city": "Baltra",
    "country": "EC",
    "lat": -0.4537580013,
    "lon": -90.2658996582
  },
  "GYE": {
    "name": "Simon Bolivar International Airport",
    "city": "Guayaquil",
    "country": "EC",
    "lat": -2.15741992,
    "lon": -79.8835983276
  },
  "IBB": {
    "name": "General Villamil Airport",
    "city": "Isabela",
    "country": "EC",
    "lat": -0.942628026,
    "lon": -90.9530029297
  },
  "JIP": {
    "name": "Jipijapa Airport",
    "city": "Jipijapa",
    "country": "EC",
    "lat": -1,
    "lon": -80.6666641235
  },
  "LTX": {
    "name": "Cotopaxi International Airport",
    "city": "Latacunga",
    "country": "EC",
    "lat": -0.906832993,
    "lon": -78.6157989502
  },
  "MRR": {
    "name": "Jose Maria Velasco Ibarra Airport",
    "city": "Macara",
    "country": "EC",
    "lat": -4.3782300949,
    "lon": -79.9410018921
  },
  "XMS": {
    "name": "Coronel E Carvajal Airport",
    "city": "Macas",
    "country": "EC",
    "lat": -2.2991700172,
    "lon": -78.1207962036
  },
  "MCH": {
    "name": "General Manuel Serrano Airport",
    "city": "Machala",
    "country": "EC",
    "lat": -3.2688999176,
    "lon": -79.9616012573
  },
  "MEC": {
    "name": "Eloy Alfaro International Airport",
    "city": "Manta",
    "country": "EC",
    "lat": -0.9460780025,
    "lon": -80.6788024902
  },
  "LGQ": {
    "name": "Nueva Loja Airport",
    "city": "Lago Agrio",
    "country": "EC",
    "lat": 0.0930560008,
    "lon": -76.8675003052
  },
  "PYO": {
    "name": "Putumayo Airport",
    "city": "Puerto Putumayo",
    "country": "EC",
    "lat": 0.0833330005,
    "lon": -75.9000015259
  },
  "PVO": {
    "name": "Reales Tamarindos Airport",
    "city": "Portoviejo",
    "country": "EC",
    "lat": -1.0416500568,
    "lon": -80.4721984863
  },
  "UIO": {
    "name": "Nuevo Aeropuerto Internacional Mariscal Sucre",
    "city": "Quito",
    "country": "EC",
    "lat": -0.1291666667,
    "lon": -78.3575
  },
  "ETR": {
    "name": "Coronel Artilleria Victor Larrea Airport",
    "city": "Santa Rosa",
    "country": "EC",
    "lat": -3.4351599217,
    "lon": -79.9777984619
  },
  "SNC": {
    "name": "General Ulpiano Paez Airport",
    "city": "Salinas",
    "country": "EC",
    "lat": -2.2049899101,
    "lon": -80.988899231
  },
  "SUQ": {
    "name": "Sucua Airport",
    "city": "Sucua",
    "country": "EC",
    "lat": -2.4830000401,
    "lon": -78.1669998169
  },
  "PTZ": {
    "name": "Rio Amazonas Airport",
    "city": "Shell Mera",
    "country": "EC",
    "lat": -1.5052399635,
    "lon": -78.0626983643
  },
  "SCY": {
    "name": "San Cristobal Airport",
    "city": "San Cristobal",
    "country": "EC",
    "lat": -0.9102060199,
    "lon": -89.617401123
  },
  "BHA": {
    "name": "Los Perales Airport",
    "city": "Bahia de Caraquez",
    "country": "EC",
    "lat": -0.6081110239,
    "lon": -80.4027023315
  },
  "TSC": {
    "name": "Taisha Airport",
    "city": "Taisha",
    "country": "EC",
    "lat": -2.3816699982,
    "lon": -77.5027999878
  },
  "TPN": {
    "name": "Tiputini Airport",
    "city": "Tiputini",
    "country": "EC",
    "lat": -0.7761110067,
    "lon": -75.5263977051
  },
  "LOH": {
    "name": "Camilo Ponce Enriquez Airport",
    "city": "La Toma (Catamayo)",
    "country": "EC",
    "lat": -3.9958899021,
    "lon": -79.3719024658
  },
  "ESM": {
    "name": "General Rivadeneira Airport",
    "city": "Tachina",
    "country": "EC",
    "lat": 0.9785190225,
    "lon": -79.6266021729
  },
  "TPC": {
    "name": "Tarapoa Airport",
    "city": "Tarapoa",
    "country": "EC",
    "lat": -0.1229560003,
    "lon": -76.3377990723
  },
  "TUA": {
    "name": "Teniente Coronel Luis a Mantilla Airport",
    "city": "Tulcan",
    "country": "EC",
    "lat": 0.8095059991,
    "lon": -77.7080993652
  },
  "ASU": {
    "name": "Silvio Pettirossi International Airport",
    "city": "Asuncion",
    "country": "PY",
    "lat": -25.2399997711,
    "lon": -57.5200004578
  },
  "AYO": {
    "name": "Juan De Ayolas Airport",
    "city": "Ayolas",
    "country": "PY",
    "lat": -27.3700008392,
    "lon": -56.8499984741
  },
  "BFA": {
    "name": "Bahia Negra Airport",
    "city": "Bahia Negra",
    "country": "PY",
    "lat": -20.2245998383,
    "lon": -58.1791992188
  },
  "CIO": {
    "name": "Teniente Col Carmelo Peralta Airport",
    "city": "Concepcion",
    "country": "PY",
    "lat": -23.4400005341,
    "lon": -57.4300003052
  },
  "ENO": {
    "name": "Encarnacion Airport",
    "city": "Encarnacion",
    "country": "PY",
    "lat": -27.2999992371,
    "lon": -55.9099998474
  },
  "AGT": {
    "name": "Guarani International Airport",
    "city": "Ciudad del Este",
    "country": "PY",
    "lat": -25.4599990845,
    "lon": -54.8400001526
  },
  "FLM": {
    "name": "Filadelfia Airport",
    "city": "Filadelfia",
    "country": "PY",
    "lat": -22.3600006104,
    "lon": -60.0499992371
  },
  "ESG": {
    "name": "Dr. Luis Maria Argana International Airport",
    "city": "Mariscal Estigarribia",
    "country": "PY",
    "lat": -22.0499992371,
    "lon": -60.6199989319
  },
  "OLK": {
    "name": "Fuerte Olimpo Airport",
    "city": "Fuerte Olimpo",
    "country": "PY",
    "lat": -21.0452003479,
    "lon": -57.8824996948
  },
  "PIL": {
    "name": "Carlos Miguel Gimenez Airport",
    "city": "Pilar",
    "country": "PY",
    "lat": -26.8799991608,
    "lon": -58.3199996948
  },
  "PJC": {
    "name": "Dr Augusto Roberto Fuster International Airport",
    "city": "Pedro Juan Caballero",
    "country": "PY",
    "lat": -22.6399993896,
    "lon": -55.8300018311
  },
  "MSI": {
    "name": "Fazenda Palmital Airport",
    "city": "Morro Agudo",
    "country": "BR",
    "lat": -20.6963996887,
    "lon": -48.2863998413
  },
  "LVR": {
    "name": "Municipal Bom Futuro Airport",
    "city": "Lucas do Rio Verde",
    "country": "BR",
    "lat": -13.0378611111,
    "lon": -55.95025
  },
  "FRC": {
    "name": "Franca Airport",
    "city": "Franca",
    "country": "BR",
    "lat": -20.5921993256,
    "lon": -47.382900238
  },
  "JUA": {
    "name": "Juara Sul Airport",
    "city": "Juara",
    "country": "BR",
    "lat": -11.2866668701,
    "lon": -57.5388908386
  },
  "CFO": {
    "name": "Confresa Airport",
    "city": "Confresa",
    "country": "BR",
    "lat": -10.6344003677,
    "lon": -51.5635986328
  },
  "NPR": {
    "name": "Novo Progresso Airport",
    "city": "Novo Progresso",
    "country": "BR",
    "lat": -7.1258330345,
    "lon": -55.4008331299
  },
  "RIG": {
    "name": "Rio Grande Airport",
    "city": "Rio Grande",
    "country": "BR",
    "lat": -32.081699,
    "lon": -52.163299
  },
  "ACR": {
    "name": "Araracuara Airport",
    "city": "Araracuara",
    "country": "CO",
    "lat": -0.5833,
    "lon": -72.4083
  },
  "ACD": {
    "name": "Alcides Fernandez Airport",
    "city": "Acandi",
    "country": "CO",
    "lat": 8.51667,
    "lon": -77.3
  },
  "HAY": {
    "name": "Aguachica Airport",
    "city": "Aguachica",
    "country": "CO",
    "lat": 8.3,
    "lon": -73.6306
  },
  "AFI": {
    "name": "Amalfi Airport",
    "city": "Amalfi",
    "country": "CO",
    "lat": 6.91667,
    "lon": -75.0667
  },
  "ADN": {
    "name": "Andes Airport",
    "city": "Andes",
    "country": "CO",
    "lat": 5.66667,
    "lon": -75.8833
  },
  "API": {
    "name": "Gomez Nino Apiay Air Base",
    "city": "Apiay",
    "country": "CO",
    "lat": 4.07607,
    "lon": -73.5627
  },
  "AXM": {
    "name": "El Eden Airport",
    "city": "Armenia",
    "country": "CO",
    "lat": 4.45278,
    "lon": -75.7664
  },
  "PUU": {
    "name": "Tres De Mayo Airport",
    "city": "Puerto Asis",
    "country": "CO",
    "lat": 0.505228,
    "lon": -76.5008
  },
  "ELB": {
    "name": "Las Flores Airport",
    "city": "El Banco",
    "country": "CO",
    "lat": 9.04554,
    "lon": -73.9749
  },
  "BGA": {
    "name": "Palonegro Airport",
    "city": "Bucaramanga",
    "country": "CO",
    "lat": 7.1265,
    "lon": -73.1848
  },
  "BOG": {
    "name": "El Dorado International Airport",
    "city": "Bogota",
    "country": "CO",
    "lat": 4.70159,
    "lon": -74.1469
  },
  "BAQ": {
    "name": "Ernesto Cortissoz International Airport",
    "city": "Barranquilla",
    "country": "CO",
    "lat": 10.8896,
    "lon": -74.7808
  },
  "BSC": {
    "name": "Jose Celestino Mutis Airport",
    "city": "Bahia Solano",
    "country": "CO",
    "lat": 6.20292,
    "lon": -77.3947
  },
  "BUN": {
    "name": "Gerardo Tobar Lopez Airport",
    "city": "Buenaventura",
    "country": "CO",
    "lat": 3.81963,
    "lon": -76.9898
  },
  "CPB": {
    "name": "Capurgana Airport",
    "city": "Capurgana",
    "country": "CO",
    "lat": 8.63333,
    "lon": -77.35
  },
  "CUC": {
    "name": "Camilo Daza International Airport",
    "city": "Cucuta",
    "country": "CO",
    "lat": 7.92757,
    "lon": -72.5115
  },
  "COG": {
    "name": "Mandinga Airport",
    "city": "Condoto",
    "country": "CO",
    "lat": 5.08333,
    "lon": -76.7
  },
  "CTG": {
    "name": "Rafael Nunez International Airport",
    "city": "Cartagena",
    "country": "CO",
    "lat": 10.4424,
    "lon": -75.513
  },
  "CCO": {
    "name": "Carimagua Airport",
    "city": "Puerto Lopez",
    "country": "CO",
    "lat": 4.56417,
    "lon": -71.3364
  },
  "CLO": {
    "name": "Alfonso Bonilla Aragon International Airport",
    "city": "Cali",
    "country": "CO",
    "lat": 3.54322,
    "lon": -76.3816
  },
  "CIM": {
    "name": "Cimitarra Airport",
    "city": "Cimitarra",
    "country": "CO",
    "lat": 6.367,
    "lon": -73.967
  },
  "RAV": {
    "name": "Cravo Norte Airport",
    "city": "Cravo Norte",
    "country": "CO",
    "lat": 6.31684,
    "lon": -70.2107
  },
  "TCO": {
    "name": "La Florida Airport",
    "city": "Tumaco",
    "country": "CO",
    "lat": 1.81442,
    "lon": -78.7492
  },
  "BHF": {
    "name": "Cupica Airport",
    "city": "Bahia Solano",
    "country": "CO",
    "lat": 6.691944,
    "lon": -77.477222
  },
  "CUO": {
    "name": "Caruru Airport",
    "city": "Caruru",
    "country": "CO",
    "lat": 1.0136,
    "lon": -71.2961
  },
  "CAQ": {
    "name": "Juan H White Airport",
    "city": "Caucasia",
    "country": "CO",
    "lat": 7.96847,
    "lon": -75.1985
  },
  "CVE": {
    "name": "Covenas Airport",
    "city": "Covenas",
    "country": "CO",
    "lat": 9.40092,
    "lon": -75.6913
  },
  "CZU": {
    "name": "Las Brujas Airport",
    "city": "Corozal",
    "country": "CO",
    "lat": 9.33274,
    "lon": -75.2856
  },
  "EBG": {
    "name": "El Bagre Airport",
    "city": "El Bagre",
    "country": "CO",
    "lat": 7.59647,
    "lon": -74.8089
  },
  "EJA": {
    "name": "Yariguies Airport",
    "city": "Barrancabermeja",
    "country": "CO",
    "lat": 7.02433,
    "lon": -73.8068
  },
  "FLA": {
    "name": "Gustavo Artunduaga Paredes Airport",
    "city": "Florencia",
    "country": "CO",
    "lat": 1.58919,
    "lon": -75.5644
  },
  "FDA": {
    "name": "Fundacion Airport",
    "city": "Fundacion",
    "country": "CO",
    "lat": 10.5333,
    "lon": -74.2
  },
  "LGT": {
    "name": "La Gaviota Airport",
    "city": "",
    "country": "CO",
    "lat": 4.549722,
    "lon": -70.925
  },
  "GIR": {
    "name": "Santiago Vila Airport",
    "city": "Girardot",
    "country": "CO",
    "lat": 4.27624,
    "lon": -74.7967
  },
  "CRC": {
    "name": "Santa Ana Airport",
    "city": "Cartago",
    "country": "CO",
    "lat": 4.75818,
    "lon": -75.9557
  },
  "GPI": {
    "name": "Juan Casiano Airport",
    "city": "Guapi",
    "country": "CO",
    "lat": 2.57013,
    "lon": -77.8986
  },
  "GLJ": {
    "name": "Garzon La Jagua Airport",
    "city": "Garzon",
    "country": "CO",
    "lat": 2.1464,
    "lon": -75.6944
  },
  "CPL": {
    "name": "Chaparral Airport",
    "city": "Chaparral",
    "country": "CO",
    "lat": 3.717,
    "lon": -75.467
  },
  "HTZ": {
    "name": "Hato Corozal Airport",
    "city": "Hato Corozal",
    "country": "CO",
    "lat": 6.15,
    "lon": -71.75
  },
  "IBE": {
    "name": "Perales Airport",
    "city": "Ibague",
    "country": "CO",
    "lat": 4.42161,
    "lon": -75.1333
  },
  "IGO": {
    "name": "Chigorodo Airport",
    "city": "Chigorodo",
    "country": "CO",
    "lat": 7.68038,
    "lon": -76.6865
  },
  "IPI": {
    "name": "San Luis Airport",
    "city": "Ipiales",
    "country": "CO",
    "lat": 0.861925,
    "lon": -77.6718
  },
  "APO": {
    "name": "Antonio Roldan Betancourt Airport",
    "city": "Carepa",
    "country": "CO",
    "lat": 7.81196,
    "lon": -76.7164
  },
  "LQM": {
    "name": "Caucaya Airport",
    "city": "Puerto Leguizamo",
    "country": "CO",
    "lat": -0.182278,
    "lon": -74.7708
  },
  "MCJ": {
    "name": "Jorge Isaac Airport",
    "city": "La Mina-Maicao",
    "country": "CO",
    "lat": 11.2325,
    "lon": -72.4901
  },
  "LPD": {
    "name": "La Pedrera Airport",
    "city": "La Pedrera",
    "country": "CO",
    "lat": -1.32861,
    "lon": -69.5797
  },
  "LET": {
    "name": "Alfredo Vasquez Cobo International Airport",
    "city": "Leticia",
    "country": "CO",
    "lat": -4.19355,
    "lon": -69.9432
  },
  "EOH": {
    "name": "Enrique Olaya Herrera Airport",
    "city": "Medellin",
    "country": "CO",
    "lat": 6.220549,
    "lon": -75.590582
  },
  "MFS": {
    "name": "Miraflores Airport",
    "city": "Miraflores",
    "country": "CO",
    "lat": 1.35,
    "lon": -71.9444
  },
  "MGN": {
    "name": "Baracoa Airport",
    "city": "Magangue",
    "country": "CO",
    "lat": 9.28474,
    "lon": -74.8461
  },
  "MTB": {
    "name": "Montelibano Airport",
    "city": "Montelibano",
    "country": "CO",
    "lat": 7.97174,
    "lon": -75.4325
  },
  "MMP": {
    "name": "San Bernardo Airport",
    "city": "Mompos",
    "country": "CO",
    "lat": 9.25872,
    "lon": -74.438
  },
  "MTR": {
    "name": "Los Garzones Airport",
    "city": "Monteria",
    "country": "CO",
    "lat": 8.82374,
    "lon": -75.8258
  },
  "MVP": {
    "name": "Fabio Alberto Leon Bentley Airport",
    "city": "Mitu",
    "country": "CO",
    "lat": 1.25366,
    "lon": -70.2339
  },
  "MZL": {
    "name": "La Nubia Airport",
    "city": "Manizales",
    "country": "CO",
    "lat": 5.0296,
    "lon": -75.4647
  },
  "NCI": {
    "name": "Necocli Airport",
    "city": "Necocli",
    "country": "CO",
    "lat": 8.45,
    "lon": -76.7833
  },
  "NQU": {
    "name": "Reyes Murillo Airport",
    "city": "Nuqui",
    "country": "CO",
    "lat": 5.6964,
    "lon": -77.2806
  },
  "NVA": {
    "name": "Benito Salas Airport",
    "city": "Neiva",
    "country": "CO",
    "lat": 2.95015,
    "lon": -75.294
  },
  "OCV": {
    "name": "Aguas Claras Airport",
    "city": "Ocana",
    "country": "CO",
    "lat": 8.31506,
    "lon": -73.3583
  },
  "ORC": {
    "name": "Orocue Airport",
    "city": "Orocue",
    "country": "CO",
    "lat": 4.79222,
    "lon": -71.3564
  },
  "OTU": {
    "name": "Otu Airport",
    "city": "El Rhin",
    "country": "CO",
    "lat": 7.01037,
    "lon": -74.7155
  },
  "RON": {
    "name": "Juan Jose Rondon Airport",
    "city": "Paipa",
    "country": "CO",
    "lat": 5.76454,
    "lon": -73.1054
  },
  "PCR": {
    "name": "German Olano Airport",
    "city": "Puerto Carreno",
    "country": "CO",
    "lat": 6.18472,
    "lon": -67.4932
  },
  "PDA": {
    "name": "Obando Airport",
    "city": "Puerto Inirida",
    "country": "CO",
    "lat": 3.85353,
    "lon": -67.9062
  },
  "PEI": {
    "name": "Matecana International Airport",
    "city": "Pereira",
    "country": "CO",
    "lat": 4.81267,
    "lon": -75.7395
  },
  "PTX": {
    "name": "Pitalito Airport",
    "city": "Pitalito",
    "country": "CO",
    "lat": 1.85777,
    "lon": -76.0857
  },
  "PLT": {
    "name": "Plato Airport",
    "city": "Plato",
    "country": "CO",
    "lat": 9.8,
    "lon": -74.7833
  },
  "NAR": {
    "name": "Puerto Nare Airport",
    "city": "Armenia",
    "country": "CO",
    "lat": 6.21002,
    "lon": -74.5906
  },
  "PPN": {
    "name": "Guillermo Leon Valencia Airport",
    "city": "Popayan",
    "country": "CO",
    "lat": 2.4544,
    "lon": -76.6093
  },
  "PQE": {
    "name": "German Olano Air Base",
    "city": "La Dorada",
    "country": "CO",
    "lat": 5.48361,
    "lon": -74.6574
  },
  "PBE": {
    "name": "Puerto Berrio Airport",
    "city": "Puerto Berrio",
    "country": "CO",
    "lat": 6.46034,
    "lon": -74.4105
  },
  "PSO": {
    "name": "Antonio Narino Airport",
    "city": "Pasto",
    "country": "CO",
    "lat": 1.39625,
    "lon": -77.2915
  },
  "PVA": {
    "name": "El Embrujo Airport",
    "city": "Providencia",
    "country": "CO",
    "lat": 13.3569,
    "lon": -81.3583
  },
  "PZA": {
    "name": "Paz De Ariporo Airport",
    "city": "Paz De Ariporo",
    "country": "CO",
    "lat": 5.87615,
    "lon": -71.8866
  },
  "MQU": {
    "name": "Jose Celestino Mutis Airport",
    "city": "Mariquita",
    "country": "CO",
    "lat": 5.21256,
    "lon": -74.8836
  },
  "MDE": {
    "name": "Jose Maria Cordova International Airport",
    "city": "Rionegro",
    "country": "CO",
    "lat": 6.16454,
    "lon": -75.4231
  },
  "RCH": {
    "name": "Almirante Padilla Airport",
    "city": "Riohacha",
    "country": "CO",
    "lat": 11.5262,
    "lon": -72.926
  },
  "RVE": {
    "name": "Los Colonizadores Airport",
    "city": "Saravena",
    "country": "CO",
    "lat": 6.951389,
    "lon": -71.856944
  },
  "SJE": {
    "name": "Jorge E. Gonzalez Torres Airport",
    "city": "San Jose Del Guaviare",
    "country": "CO",
    "lat": 2.57969,
    "lon": -72.6394
  },
  "SMR": {
    "name": "Simon Bolivar International Airport",
    "city": "Santa Marta",
    "country": "CO",
    "lat": 11.1196,
    "lon": -74.2306
  },
  "SOX": {
    "name": "Alberto Lleras Camargo Airport",
    "city": "Sogamoso",
    "country": "CO",
    "lat": 5.67732,
    "lon": -72.9703
  },
  "ADZ": {
    "name": "Gustavo Rojas Pinilla International Airport",
    "city": "San Andres",
    "country": "CO",
    "lat": 12.5836,
    "lon": -81.7112
  },
  "SVI": {
    "name": "Eduardo Falla Solano Airport",
    "city": "San Vicente Del Caguan",
    "country": "CO",
    "lat": 2.15217,
    "lon": -74.7663
  },
  "TAU": {
    "name": "Tauramena Airport",
    "city": "Tauramena",
    "country": "CO",
    "lat": 5.01281,
    "lon": -72.7424
  },
  "TIB": {
    "name": "Tibu Airport",
    "city": "Tibu",
    "country": "CO",
    "lat": 8.63152,
    "lon": -72.7304
  },
  "TDA": {
    "name": "Trinidad Airport",
    "city": "Trinidad",
    "country": "CO",
    "lat": 5.43278,
    "lon": -71.6625
  },
  "TLU": {
    "name": "Tolu Airport",
    "city": "Tolu",
    "country": "CO",
    "lat": 9.50945,
    "lon": -75.5854
  },
  "TME": {
    "name": "Gustavo Vargas Airport",
    "city": "Tame",
    "country": "CO",
    "lat": 6.45108,
    "lon": -71.7603
  },
  "TQS": {
    "name": "Tres Esquinas Air Base",
    "city": "Tres Esquinas",
    "country": "CO",
    "lat": 0.7459,
    "lon": -75.234
  },
  "TRB": {
    "name": "Gonzalo Mejia Airport",
    "city": "Turbo",
    "country": "CO",
    "lat": 8.07453,
    "lon": -76.7415
  },
  "AUC": {
    "name": "Santiago Perez Airport",
    "city": "Arauca",
    "country": "CO",
    "lat": 7.06888,
    "lon": -70.7369
  },
  "UIB": {
    "name": "El Carano Airport",
    "city": "Quibdo",
    "country": "CO",
    "lat": 5.69076,
    "lon": -76.6412
  },
  "ULQ": {
    "name": "Farfan Airport",
    "city": "Tulua",
    "country": "CO",
    "lat": 4.08836,
    "lon": -76.2351
  },
  "URR": {
    "name": "Urrao Airport",
    "city": "Urrao",
    "country": "CO",
    "lat": 6.32883,
    "lon": -76.1425
  },
  "VGZ": {
    "name": "Villa Garzon Airport",
    "city": "Villa Garzon",
    "country": "CO",
    "lat": 0.981944,
    "lon": -76.604167
  },
  "PYA": {
    "name": "Velasquez Airport",
    "city": "Velasquez",
    "country": "CO",
    "lat": 5.93904,
    "lon": -74.457
  },
  "VUP": {
    "name": "Alfonso Lopez Pumarejo Airport",
    "city": "Valledupar",
    "country": "CO",
    "lat": 10.435,
    "lon": -73.2495
  },
  "VVC": {
    "name": "Vanguardia Airport",
    "city": "Villavicencio",
    "country": "CO",
    "lat": 4.16787,
    "lon": -73.6138
  },
  "AYG": {
    "name": "Yaguara Airport",
    "city": "San Vicente Del Caguan",
    "country": "CO",
    "lat": 1.54417,
    "lon": -73.9333
  },
  "EYP": {
    "name": "El Yopal Airport",
    "city": "El Yopal",
    "country": "CO",
    "lat": 5.31911,
    "lon": -72.384
  },
  "MHW": {
    "name": "Monteagudo Airport",
    "city": "El Banado",
    "country": "BO",
    "lat": -19.8269996643,
    "lon": -63.9609985352
  },
  "SRE": {
    "name": "AlcantarÃ­ International Airport",
    "city": "Sucre",
    "country": "BO",
    "lat": -19.24627,
    "lon": -65.15104
  },
  "APB": {
    "name": "Apolo Airport",
    "city": "Apolo",
    "country": "BO",
    "lat": -14.7356004715,
    "lon": -68.4119033813
  },
  "ASC": {
    "name": "Ascencion De Guarayos Airport",
    "city": "Ascension de Guarayos",
    "country": "BO",
    "lat": -15.9302997589,
    "lon": -63.1567001343
  },
  "BVL": {
    "name": "Baures Airport",
    "city": "Baures",
    "country": "BO",
    "lat": -13.5833330154,
    "lon": -63.5833320618
  },
  "BJO": {
    "name": "Bermejo Airport",
    "city": "Bermejo",
    "country": "BO",
    "lat": -22.7733001709,
    "lon": -64.3128967285
  },
  "CAM": {
    "name": "Camiri Airport",
    "city": "Camiri",
    "country": "BO",
    "lat": -20.0063991547,
    "lon": -63.5278015137
  },
  "CBB": {
    "name": "Jorge Wilsterman International Airport",
    "city": "Cochabamba",
    "country": "BO",
    "lat": -17.4211006165,
    "lon": -66.1771011353
  },
  "CIJ": {
    "name": "Capitan Anibal Arab Airport",
    "city": "Cobija",
    "country": "BO",
    "lat": -11.0403995514,
    "lon": -68.7829971313
  },
  "CEP": {
    "name": "Concepcion Airport",
    "city": "Concepcion",
    "country": "BO",
    "lat": -16.138299942,
    "lon": -62.0285987854
  },
  "SRZ": {
    "name": "El Trompillo Airport",
    "city": "Santa Cruz",
    "country": "BO",
    "lat": -17.8115997314,
    "lon": -63.1715011597
  },
  "GYA": {
    "name": "Capitan de Av. Emilio Beltran Airport",
    "city": "Guayaramerin",
    "country": "BO",
    "lat": -10.820599556,
    "lon": -65.3455963135
  },
  "BVK": {
    "name": "Huacaraje Airport",
    "city": "Itenes",
    "country": "BO",
    "lat": -13.5500001907,
    "lon": -63.7478981018
  },
  "SJS": {
    "name": "San Jose De Chiquitos Airport",
    "city": "San Jose de Chiquitos",
    "country": "BO",
    "lat": -17.8307991028,
    "lon": -60.7430992126
  },
  "SJB": {
    "name": "San Joaquin Airport",
    "city": "San Joaquin",
    "country": "BO",
    "lat": -13.0528001785,
    "lon": -64.6616973877
  },
  "SJV": {
    "name": "San Javier Airport",
    "city": "San Javier",
    "country": "BO",
    "lat": -16.2707996368,
    "lon": -62.4702987671
  },
  "LPB": {
    "name": "El Alto International Airport",
    "city": "La Paz / El Alto",
    "country": "BO",
    "lat": -16.513299942,
    "lon": -68.1922988892
  },
  "MGD": {
    "name": "Magdalena Airport",
    "city": "Magdalena",
    "country": "BO",
    "lat": -13.2607483767,
    "lon": -64.0607643127
  },
  "ORU": {
    "name": "Juan Mendoza Airport",
    "city": "Oruro",
    "country": "BO",
    "lat": -17.962600708,
    "lon": -67.0762023926
  },
  "POI": {
    "name": "Capitan Nicolas Rojas Airport",
    "city": "Potosi",
    "country": "BO",
    "lat": -19.5431003571,
    "lon": -65.7237014771
  },
  "PUR": {
    "name": "Puerto Rico Airport",
    "city": "Puerto Rico/Manuripi",
    "country": "BO",
    "lat": -11.1076631546,
    "lon": -67.5511550903
  },
  "PSZ": {
    "name": "Capitan Av. Salvador Ogaya G. airport",
    "city": "Puerto Suarez",
    "country": "BO",
    "lat": -18.9752998352,
    "lon": -57.8205986023
  },
  "SRD": {
    "name": "San Ramon Airport",
    "city": "San Ramon / Mamore",
    "country": "BO",
    "lat": -13.2638998032,
    "lon": -64.6038970947
  },
  "RBO": {
    "name": "Robore Airport",
    "city": "Robore",
    "country": "BO",
    "lat": -18.3292007446,
    "lon": -59.7649993896
  },
  "RIB": {
    "name": "Capitan Av. Selin Zeitun Lopez Airport",
    "city": "Riberalta",
    "country": "BO",
    "lat": -11,
    "lon": -66
  },
  "RBQ": {
    "name": "Rurenabaque Airport",
    "city": "Rurenabaque",
    "country": "BO",
    "lat": -14.4279003143,
    "lon": -67.4968032837
  },
  "REY": {
    "name": "Reyes Airport",
    "city": "Reyes",
    "country": "BO",
    "lat": -14.304400444,
    "lon": -67.3534011841
  },
  "SBL": {
    "name": "Santa Ana Del Yacuma Airport",
    "city": "Santa Ana del Yacuma",
    "country": "BO",
    "lat": -13.7622003555,
    "lon": -65.4352035522
  },
  "SRJ": {
    "name": "Capitan Av. German Quiroga G. Airport",
    "city": "San Borja",
    "country": "BO",
    "lat": -14.8591995239,
    "lon": -66.7375030518
  },
  "SNG": {
    "name": "Capitan Av. Juan Cochamanidis S. Airport",
    "city": "San Ignacio de Velasco",
    "country": "BO",
    "lat": -16.383600235,
    "lon": -60.9627990723
  },
  "SNM": {
    "name": "San Ignacio de Moxos Airport",
    "city": "San Ignacio de Moxos",
    "country": "BO",
    "lat": -14,
    "lon": -65.6339035034
  },
  "SRB": {
    "name": "Santa Rosa De Yacuma Airport",
    "city": "Santa Rosa",
    "country": "BO",
    "lat": -14.0662002563,
    "lon": -66.7867965698
  },
  "MQK": {
    "name": "San Matias Airport",
    "city": "San Matias",
    "country": "BO",
    "lat": -16.3391990662,
    "lon": -58.4019012451
  },
  "TJA": {
    "name": "Capitan Oriel Lea Plaza Airport",
    "city": "Tarija",
    "country": "BO",
    "lat": -21.5557003021,
    "lon": -64.7013015747
  },
  "TDD": {
    "name": "Teniente Av. Jorge Henrich Arauz Airport",
    "city": "Trinidad",
    "country": "BO",
    "lat": -14.8186998367,
    "lon": -64.9179992676
  },
  "UYU": {
    "name": "Uyuni Airport",
    "city": "Quijarro",
    "country": "BO",
    "lat": -20.4463005066,
    "lon": -66.8483963013
  },
  "VAH": {
    "name": "Capitan Av. Vidal Villagomez Toledo Airport",
    "city": "Vallegrande",
    "country": "BO",
    "lat": -18.4825000763,
    "lon": -64.0994033813
  },
  "VLM": {
    "name": "Teniente Coronel Rafael Pabon Airport",
    "city": "Villamontes",
    "country": "BO",
    "lat": -21.2551994324,
    "lon": -63.4056015015
  },
  "VVI": {
    "name": "Viru Viru International Airport",
    "city": "Santa Cruz",
    "country": "BO",
    "lat": -17.6448001862,
    "lon": -63.1353988647
  },
  "BYC": {
    "name": "Yacuiba Airport",
    "city": "Yacuiba",
    "country": "BO",
    "lat": -21.960899353,
    "lon": -63.6516990662
  },
  "ABN": {
    "name": "Albina Airport",
    "city": "Albina",
    "country": "SR",
    "lat": 5.512720108,
    "lon": -54.0500984192
  },
  "BTO": {
    "name": "Botopasi Airport",
    "city": "Botopasi",
    "country": "SR",
    "lat": 4.2175110935,
    "lon": -55.4470539093
  },
  "AAJ": {
    "name": "Cayana Airstrip",
    "city": "Awaradam",
    "country": "SR",
    "lat": 3.898681,
    "lon": -55.577907
  },
  "TOT": {
    "name": "Totness Airport",
    "city": "Totness",
    "country": "SR",
    "lat": 5.8658299446,
    "lon": -56.3274993896
  },
  "DRJ": {
    "name": "Drietabbetje Airport",
    "city": "Drietabbetje",
    "country": "SR",
    "lat": 4.1166667938,
    "lon": -54.6666717529
  },
  "DOE": {
    "name": "Djumu-Djomoe Airport",
    "city": "Djumu-Djomoe",
    "country": "SR",
    "lat": 4.0057126106,
    "lon": -55.4816436768
  },
  "LDO": {
    "name": "Ladouanie Airport",
    "city": "Aurora",
    "country": "SR",
    "lat": 4.3761082835,
    "lon": -55.4070568085
  },
  "PBM": {
    "name": "Johan Adolf Pengel International Airport",
    "city": "Zandery",
    "country": "SR",
    "lat": 5.4528298378,
    "lon": -55.1878013611
  },
  "MOJ": {
    "name": "Moengo Airstrip",
    "city": "Moengo",
    "country": "SR",
    "lat": 5.6076,
    "lon": -54.4003
  },
  "ICK": {
    "name": "Nieuw Nickerie Airport",
    "city": "Nieuw Nickerie",
    "country": "SR",
    "lat": 5.9555602074,
    "lon": -57.0393981934
  },
  "OEM": {
    "name": "Vincent Fayks Airport",
    "city": "Paloemeu",
    "country": "SR",
    "lat": 3.345279932,
    "lon": -55.4425010681
  },
  "SMZ": {
    "name": "Stoelmanseiland Airport",
    "city": "Stoelmanseiland",
    "country": "SR",
    "lat": 4.3499999046,
    "lon": -54.4166679382
  },
  "KCB": {
    "name": "Tepoe Airstrip",
    "city": "Kasikasima",
    "country": "SR",
    "lat": 3.1500000954,
    "lon": -55.716999054
  },
  "AGI": {
    "name": "Wageningen Airport Airport",
    "city": "Wageningen Airport",
    "country": "SR",
    "lat": 5.7666668892,
    "lon": -56.6333312988
  },
  "WSO": {
    "name": "Washabo Airport",
    "city": "Washabo",
    "country": "SR",
    "lat": 5.2501502037,
    "lon": -57.1738014221
  },
  "ORG": {
    "name": "Zorg en Hoop Airport",
    "city": "Paramaribo",
    "country": "SR",
    "lat": 5.8110799789,
    "lon": -55.190700531
  },
  "JAW": {
    "name": "Araripina Airport",
    "city": "Araripina",
    "country": "BR",
    "lat": -7.5867600441,
    "lon": -40.5354995728
  },
  "APY": {
    "name": "Alto Parnaiba Airport",
    "city": "Alto Parnaiba",
    "country": "BR",
    "lat": -9.0836105347,
    "lon": -45.9505577087
  },
  "APQ": {
    "name": "Arapiraca Airport",
    "city": "Arapiraca",
    "country": "BR",
    "lat": -9.7753601074,
    "lon": -36.6291999817
  },
  "AMJ": {
    "name": "Cirilo Queiroz Airport",
    "city": "Almenara",
    "country": "BR",
    "lat": -16.18389,
    "lon": -40.66722
  },
  "BDC": {
    "name": "Barra do Corda Airport",
    "city": "Barra Do Corda",
    "country": "BR",
    "lat": -5.5025,
    "lon": -45.215833
  },
  "BVM": {
    "name": "Belmonte Airport",
    "city": "Belmonte",
    "country": "BR",
    "lat": -15.8717002869,
    "lon": -38.8718986511
  },
  "BRA": {
    "name": "Barreiras Airport",
    "city": "Barreiras",
    "country": "BR",
    "lat": -12.0789003372,
    "lon": -45.0089988708
  },
  "BSS": {
    "name": "Balsas Airport",
    "city": "Balsas",
    "country": "BR",
    "lat": -7.5260300636,
    "lon": -46.0532989502
  },
  "BMS": {
    "name": "Socrates Mariani Bittencourt Airport",
    "city": "Brumado",
    "country": "BR",
    "lat": -14.255399704,
    "lon": -41.8175010681
  },
  "BQQ": {
    "name": "Barra Airport",
    "city": "Barra",
    "country": "BR",
    "lat": -11.0808000565,
    "lon": -43.1474990845
  },
  "CTP": {
    "name": "Carutapera Airport",
    "city": "Carutapera",
    "country": "BR",
    "lat": -1.2502779961,
    "lon": -46.0172233582
  },
  "CPU": {
    "name": "Cururupu Airport",
    "city": "Cururupu",
    "country": "BR",
    "lat": -1.821111,
    "lon": -44.866944
  },
  "QCH": {
    "name": "Colatina Airport",
    "city": "Colatina",
    "country": "BR",
    "lat": -19.4869995117,
    "lon": -40.5793991089
  },
  "RDC": {
    "name": "Redencao Airport",
    "city": "Redencao",
    "country": "BR",
    "lat": -8.0332899094,
    "lon": -49.9799003601
  },
  "LEP": {
    "name": "Leopoldina Airport",
    "city": "Leopoldina",
    "country": "BR",
    "lat": -21.4661006927,
    "lon": -42.7270011902
  },
  "DTI": {
    "name": "Diamantina Airport",
    "city": "Diamantina",
    "country": "BR",
    "lat": -18.232000351,
    "lon": -43.6503982544
  },
  "DIQ": {
    "name": "Divinopolis Airport",
    "city": "Divinopolis",
    "country": "BR",
    "lat": -20.1807003021,
    "lon": -44.8708992004
  },
  "CNV": {
    "name": "Canavieiras Airport",
    "city": "Canavieiras",
    "country": "BR",
    "lat": -15.6669998169,
    "lon": -38.95470047
  },
  "SXX": {
    "name": "Sao Felix do Xingu Airport",
    "city": "Sao Felix Do Xingu",
    "country": "BR",
    "lat": -6.6402778625,
    "lon": -51.9900016785
  },
  "GUZ": {
    "name": "Guarapari Airport",
    "city": "Guarapari",
    "country": "BR",
    "lat": -20.6464996338,
    "lon": -40.4919013977
  },
  "GDP": {
    "name": "Guadalupe Airport",
    "city": "Guadalupe",
    "country": "BR",
    "lat": -6.7822198868,
    "lon": -43.5821990967
  },
  "GNM": {
    "name": "Guanambi Airport",
    "city": "Guanambi",
    "country": "BR",
    "lat": -14.2082004547,
    "lon": -42.7461013794
  },
  "GMS": {
    "name": "Fazenda Canada Airport",
    "city": "Uberlandia",
    "country": "BR",
    "lat": -18.8624992371,
    "lon": -48.4152793884
  },
  "QGP": {
    "name": "Garanhuns Airport",
    "city": "Garanhuns",
    "country": "BR",
    "lat": -8.834280014,
    "lon": -36.4715995789
  },
  "IRE": {
    "name": "Irece Airport",
    "city": "Irece",
    "country": "BR",
    "lat": -11.3399000168,
    "lon": -41.8470001221
  },
  "QIG": {
    "name": "Iguatu Airport",
    "city": "Iguatu",
    "country": "BR",
    "lat": -6.34664011,
    "lon": -39.293800354
  },
  "QIT": {
    "name": "Itapetinga Airport",
    "city": "Itapetinga",
    "country": "BR",
    "lat": -15.2445001602,
    "lon": -40.2771987915
  },
  "IPU": {
    "name": "Ipiau Airport",
    "city": "Ipiau",
    "country": "BR",
    "lat": -14.1338891983,
    "lon": -39.7338905334
  },
  "JCM": {
    "name": "Jacobina Airport",
    "city": "Jacobina",
    "country": "BR",
    "lat": -11.1632003784,
    "lon": -40.5531005859
  },
  "FEC": {
    "name": "Joao Durval Carneiro Airport",
    "city": "Feira De Santana",
    "country": "BR",
    "lat": -12.2003002167,
    "lon": -38.9067993164
  },
  "JEQ": {
    "name": "Jequie Airport",
    "city": "Jequie",
    "country": "BR",
    "lat": -13.877699852,
    "lon": -40.0716018677
  },
  "JNA": {
    "name": "Januaria Airport",
    "city": "Januaria",
    "country": "BR",
    "lat": -15.4737997055,
    "lon": -44.3855018616
  },
  "JDR": {
    "name": "Prefeito Octavio de Almeida Neves Airport",
    "city": "Sao Joao Del Rei",
    "country": "BR",
    "lat": -21.0849990845,
    "lon": -44.2247238159
  },
  "CMP": {
    "name": "Santana do Araguaia Airport",
    "city": "Santana Do Araguaia",
    "country": "BR",
    "lat": -9.3199701309,
    "lon": -50.3284988403
  },
  "QDF": {
    "name": "Conselheiro Lafaiete Airport",
    "city": "Conselheiro Lafaiete",
    "country": "BR",
    "lat": -20.7385997772,
    "lon": -43.7974014282
  },
  "CDI": {
    "name": "Cachoeiro do Itapemirim Airport",
    "city": "Cachoeiro Do Itapemirim",
    "country": "BR",
    "lat": -20.8342990875,
    "lon": -41.1856002808
  },
  "QCP": {
    "name": "Currais Novos Airport",
    "city": "Currais Novos",
    "country": "BR",
    "lat": -6.2808327675,
    "lon": -36.5402793884
  },
  "SSO": {
    "name": "Sao Lourenco Airport",
    "city": "Sao Lourenco",
    "country": "BR",
    "lat": -22.0909004211,
    "lon": -45.0444984436
  },
  "MTE": {
    "name": "Monte Alegre Airport",
    "city": "Monte Alegre",
    "country": "BR",
    "lat": -1.9958000183,
    "lon": -54.0741996765
  },
  "MVS": {
    "name": "Mucuri Airport",
    "city": "Mucuri",
    "country": "BR",
    "lat": -18.0489006042,
    "lon": -39.864200592
  },
  "SBJ": {
    "name": "Sao Mateus Airport",
    "city": "Sao Mateus",
    "country": "BR",
    "lat": -18.7213001251,
    "lon": -39.8336982727
  },
  "PTQ": {
    "name": "Porto de Moz Airport",
    "city": "Porto De Moz",
    "country": "BR",
    "lat": -1.7414499521,
    "lon": -52.2360992432
  },
  "NNU": {
    "name": "Nanuque Airport",
    "city": "Nanuque",
    "country": "BR",
    "lat": -17.823299408,
    "lon": -40.3298988342
  },
  "QBX": {
    "name": "Sobral Airport",
    "city": "Sobral",
    "country": "BR",
    "lat": -3.6788899899,
    "lon": -40.3367996216
  },
  "PSW": {
    "name": "Municipal Jose Figueiredo Airport",
    "city": "Passos",
    "country": "BR",
    "lat": -20.7322006226,
    "lon": -46.6618003845
  },
  "FEJ": {
    "name": "Feijó Airport ",
    "city": "Feijo",
    "country": "BR",
    "lat": -8.140832901,
    "lon": -70.3472213745
  },
  "ORX": {
    "name": "Oriximina Airport",
    "city": "Oriximina",
    "country": "BR",
    "lat": -1.7140799761,
    "lon": -55.8362007141
  },
  "PCS": {
    "name": "Picos Airport",
    "city": "Picos",
    "country": "BR",
    "lat": -7.0620598793,
    "lon": -41.5237007141
  },
  "POJ": {
    "name": "Patos de Minas Airport",
    "city": "Patos De Minas",
    "country": "BR",
    "lat": -18.6728000641,
    "lon": -46.4911994934
  },
  "PIV": {
    "name": "Pirapora Airport",
    "city": "Pirapora",
    "country": "BR",
    "lat": -17.3169002533,
    "lon": -44.8602981567
  },
  "FLB": {
    "name": "Cangapara Airport",
    "city": "Floriano",
    "country": "BR",
    "lat": -6.8463897705,
    "lon": -43.0773010254
  },
  "PDF": {
    "name": "Prado Airport",
    "city": "Prado",
    "country": "BR",
    "lat": -17.2966995239,
    "lon": -39.2711982727
  },
  "CAU": {
    "name": "Caruaru Airport",
    "city": "Caruaru",
    "country": "BR",
    "lat": -8.2823896408,
    "lon": -36.0135002136
  },
  "OPP": {
    "name": "Salinopolis Airport",
    "city": "Salinopolis",
    "country": "BR",
    "lat": -0.6956639886,
    "lon": -47.3347015381
  },
  "SFK": {
    "name": "Soure Airport",
    "city": "Soure",
    "country": "BR",
    "lat": -0.6994310021,
    "lon": -48.5209999084
  },
  "TXF": {
    "name": "Teixeira de Freitas Airport",
    "city": "Teixeira De Freitas",
    "country": "BR",
    "lat": -17.5244998932,
    "lon": -39.6684989929
  },
  "OBI": {
    "name": "Obidos Airport",
    "city": "Obidos",
    "country": "BR",
    "lat": -1.8671699762,
    "lon": -55.5144004822
  },
  "TFL": {
    "name": "Juscelino Kubitscheck Airport",
    "city": "Teofilo Otoni",
    "country": "BR",
    "lat": -17.8922996521,
    "lon": -41.5135993958
  },
  "VAL": {
    "name": "Valenca Airport",
    "city": "Valenca",
    "country": "BR",
    "lat": -13.296500206,
    "lon": -38.992401123
  },
  "QID": {
    "name": "Melio Viana Airport",
    "city": "Tres Coracoes",
    "country": "BR",
    "lat": -21.790599823,
    "lon": -45.2691993713
  },
  "BVS": {
    "name": "Breves Airport",
    "city": "Breves",
    "country": "BR",
    "lat": -1.6365300417,
    "lon": -50.4435997009
  },
  "CMC": {
    "name": "Camocim Airport",
    "city": "Camocim",
    "country": "BR",
    "lat": -2.8961799145,
    "lon": -40.858001709
  },
  "QXC": {
    "name": "Fazenda Sao Braz Airport",
    "city": "Barra De Santo Antonio",
    "country": "BR",
    "lat": -9.3752775192,
    "lon": -35.5416679382
  },
  "GGF": {
    "name": "Almeirim Airport",
    "city": "Almeirim",
    "country": "BR",
    "lat": -1.4919439554,
    "lon": -52.5783348083
  },
  "PHI": {
    "name": "Pinheiro Airport",
    "city": "Pinheiro",
    "country": "BR",
    "lat": -2.4836111069,
    "lon": -45.0672225952
  },
  "ITI": {
    "name": "Agropecuaria Castanhais Airport",
    "city": "Cumaru Do Norte",
    "country": "BR",
    "lat": -8.6999998093,
    "lon": -51.1741676331
  },
  "PPY": {
    "name": "Pouso Alegre Airport",
    "city": "Pouso Alegre",
    "country": "BR",
    "lat": -22.2891998291,
    "lon": -45.9191017151
  },
  "ITE": {
    "name": "Itubera Airport",
    "city": "Itubera",
    "country": "BR",
    "lat": -13.7322216034,
    "lon": -39.1416664124
  },
  "CAY": {
    "name": "Cayenne-Rochambeau Airport",
    "city": "Cayenne / Rochambeau",
    "country": "GF",
    "lat": 4.8198099136,
    "lon": -52.3604011536
  },
  "GSI": {
    "name": "Grand-Santi Airport",
    "city": "Grand-Santi",
    "country": "GF",
    "lat": 4.2858333333,
    "lon": -54.3730555556
  },
  "MPY": {
    "name": "Maripasoula Airport",
    "city": "Maripasoula",
    "country": "GF",
    "lat": 3.6575000286,
    "lon": -54.0372009277
  },
  "OXP": {
    "name": "Saint-Georges-de-l'Oyapock Airport",
    "city": "Saint-Georges-de-l'Oyapock Airport",
    "country": "GF",
    "lat": 3.8975999355,
    "lon": -51.8041000366
  },
  "LDX": {
    "name": "Saint-Laurent-du-Maroni Airport",
    "city": "Saint-Laurent-du-Maroni",
    "country": "GF",
    "lat": 5.4830598831,
    "lon": -54.0344009399
  },
  "REI": {
    "name": "Regina Airport",
    "city": "Regina",
    "country": "GF",
    "lat": 4.3147201538,
    "lon": -52.1316986084
  },
  "XAU": {
    "name": "Saul Airport",
    "city": "Saul",
    "country": "GF",
    "lat": 3.6136100292,
    "lon": -53.2042007446
  },
  "APE": {
    "name": "San Juan Aposento Airport",
    "city": "San Juan Aposento",
    "country": "PE",
    "lat": -15.3538999557,
    "lon": -75.167098999
  },
  "ALD": {
    "name": "Alerta Airport",
    "city": "Fortaleza",
    "country": "PE",
    "lat": -11.6829996109,
    "lon": -69.3330001831
  },
  "AOP": {
    "name": "Alferez FAP Alfredo Vladimir Sara Bauer Airport",
    "city": "Andoas",
    "country": "PE",
    "lat": -2.7961299419,
    "lon": -76.4665985107
  },
  "AYX": {
    "name": "Teniente General Gerardo Perez Pinedo Airport",
    "city": "Atalaya",
    "country": "PE",
    "lat": -10.7291002274,
    "lon": -73.7665023804
  },
  "MBP": {
    "name": "Moyobamba Airport",
    "city": "Moyobamba",
    "country": "PE",
    "lat": -6.0188889503,
    "lon": -76.9883270264
  },
  "BLP": {
    "name": "Huallaga Airport",
    "city": "Bellavista",
    "country": "PE",
    "lat": -7.0605602264,
    "lon": -76.5821990967
  },
  "IBP": {
    "name": "Iberia Airport",
    "city": "Iberia",
    "country": "PE",
    "lat": -11.4116001129,
    "lon": -69.4887008667
  },
  "PCL": {
    "name": "Cap FAP David Abenzur Rengifo International Airport",
    "city": "Pucallpa",
    "country": "PE",
    "lat": -8.3779401779,
    "lon": -74.5743026733
  },
  "TDP": {
    "name": "Trompeteros Airport",
    "city": "Corrientes",
    "country": "PE",
    "lat": -3.8060100079,
    "lon": -75.0392990112
  },
  "CHM": {
    "name": "Teniente FAP Jaime A De Montreuil Morales Airport",
    "city": "Chimbote",
    "country": "PE",
    "lat": -9.1496095657,
    "lon": -78.5238037109
  },
  "TGI": {
    "name": "Tingo Maria Airport",
    "city": "Tingo Maria",
    "country": "PE",
    "lat": -9.1330003738,
    "lon": -75.9499969482
  },
  "CIX": {
    "name": "Capitan FAP Jose A Quinones Gonzales International Airport",
    "city": "Chiclayo",
    "country": "PE",
    "lat": -6.7874798775,
    "lon": -79.8281021118
  },
  "AYP": {
    "name": "Coronel FAP Alfredo Mendivil Duarte Airport",
    "city": "Ayacucho",
    "country": "PE",
    "lat": -13.154800415,
    "lon": -74.2043991089
  },
  "ANS": {
    "name": "Andahuaylas Airport",
    "city": "Andahuaylas",
    "country": "PE",
    "lat": -13.7063999176,
    "lon": -73.350402832
  },
  "ATA": {
    "name": "Comandante FAP German Arias Graziani Airport",
    "city": "Anta",
    "country": "PE",
    "lat": -9.3474397659,
    "lon": -77.5983963013
  },
  "UMI": {
    "name": "Quince Air Base",
    "city": "Quince Mil",
    "country": "PE",
    "lat": -13.233300209,
    "lon": -70.7533035278
  },
  "UCZ": {
    "name": "Uchiza Airport",
    "city": "Uchiza",
    "country": "PE",
    "lat": -8.4670000076,
    "lon": -76.3499984741
  },
  "RIJ": {
    "name": "Juan Simons Vela Airport",
    "city": "Rioja",
    "country": "PE",
    "lat": -6.0678601265,
    "lon": -77.1600036621
  },
  "LIM": {
    "name": "Jorge Chavez International Airport",
    "city": "Lima",
    "country": "PE",
    "lat": -12.021900177,
    "lon": -77.1143035889
  },
  "JAE": {
    "name": "Shumba Airport",
    "city": "Jaen",
    "country": "PE",
    "lat": -5.5924801826,
    "lon": -78.7740020752
  },
  "JJI": {
    "name": "Juanjui Airport",
    "city": "Juanjui",
    "country": "PE",
    "lat": -7.1690998077,
    "lon": -76.7285995483
  },
  "JAU": {
    "name": "Francisco Carle Airport",
    "city": "Jauja",
    "country": "PE",
    "lat": -11.7831001282,
    "lon": -75.4733963013
  },
  "JUL": {
    "name": "Inca Manco Capac International Airport",
    "city": "Juliaca",
    "country": "PE",
    "lat": -15.4671001434,
    "lon": -70.158203125
  },
  "SJA": {
    "name": "San Juan de Marcona Airport",
    "city": "San Juan de Marcona",
    "country": "PE",
    "lat": -15.3524999619,
    "lon": -75.1371994019
  },
  "CJA": {
    "name": "Mayor General FAP Armando Revoredo Iglesias Airport",
    "city": "Cajamarca",
    "country": "PE",
    "lat": -7.1391801834,
    "lon": -78.489402771
  },
  "RIM": {
    "name": "San Nicolas Airport",
    "city": "Rodriguez de Mendoza",
    "country": "PE",
    "lat": -6.3923101425,
    "lon": -77.5011978149
  },
  "ILQ": {
    "name": "Ilo Airport",
    "city": "Ilo",
    "country": "PE",
    "lat": -17.6949996948,
    "lon": -71.34400177
  },
  "TBP": {
    "name": "Capitan FAP Pedro Canga Rodriguez Airport",
    "city": "Tumbes",
    "country": "PE",
    "lat": -3.5525300503,
    "lon": -80.381401062
  },
  "MZA": {
    "name": "Manuel Prado Ugarteche Airport",
    "city": "Mazamari",
    "country": "PE",
    "lat": -11.3254003525,
    "lon": -74.5355987549
  },
  "SMG": {
    "name": "Santa Maria Airport",
    "city": "Santa Maria",
    "country": "PE",
    "lat": -11.9833335876,
    "lon": -77
  },
  "YMS": {
    "name": "Moises Benzaquen Rengifo Airport",
    "city": "Yurimaguas",
    "country": "PE",
    "lat": -5.8937702179,
    "lon": -76.1182022095
  },
  "HUU": {
    "name": "Alferez Fap David Figueroa Fernandini Airport",
    "city": "Huanuco",
    "country": "PE",
    "lat": -9.8788099289,
    "lon": -76.2048034668
  },
  "SQU": {
    "name": "Saposoa Airport",
    "city": "Plaza Saposoa",
    "country": "PE",
    "lat": -6.9600300789,
    "lon": -76.7684020996
  },
  "CHH": {
    "name": "Chachapoyas Airport",
    "city": "Chachapoyas",
    "country": "PE",
    "lat": -6.2018098831,
    "lon": -77.8561019897
  },
  "REQ": {
    "name": "Requena Airport",
    "city": "Requena",
    "country": "PE",
    "lat": -5.0669999123,
    "lon": -73.8669967651
  },
  "IQT": {
    "name": "Coronel FAP Francisco Secada Vignetta International Airport",
    "city": "Iquitos",
    "country": "PE",
    "lat": -3.7847399712,
    "lon": -73.3087997437
  },
  "AQP": {
    "name": "Rodriguez Ballon International Airport",
    "city": "Arequipa",
    "country": "PE",
    "lat": -16.3411006927,
    "lon": -71.5830993652
  },
  "TRU": {
    "name": "Capitan FAP Carlos Martinez De Pinillos International Airport",
    "city": "Trujillo",
    "country": "PE",
    "lat": -8.081410408,
    "lon": -79.1088027954
  },
  "SQD": {
    "name": "San Francisco Airport",
    "city": "San Francisco de Yeso",
    "country": "PE",
    "lat": -6.6166801453,
    "lon": -77.7667007446
  },
  "PIO": {
    "name": "Capitan FAP Renan Elias Olivera International Airport",
    "city": "Pisco",
    "country": "PE",
    "lat": -13.7448997498,
    "lon": -76.2202987671
  },
  "TPP": {
    "name": "Cadete FAP Guillermo Del Castillo Paredes Airport",
    "city": "Tarapoto",
    "country": "PE",
    "lat": -6.5087399483,
    "lon": -76.3731994629
  },
  "SYC": {
    "name": "Shiringayoc Airport",
    "city": "Shiringayoc",
    "country": "PE",
    "lat": -11.8832998276,
    "lon": -69.1999969482
  },
  "TCQ": {
    "name": "Coronel FAP Carlos Ciriani Santa Rosa International Airport",
    "city": "Tacna",
    "country": "PE",
    "lat": -18.0533008575,
    "lon": -70.2758026123
  },
  "PEM": {
    "name": "Padre Aldamiz International Airport",
    "city": "Puerto Maldonado",
    "country": "PE",
    "lat": -12.6135997772,
    "lon": -69.2285995483
  },
  "PIU": {
    "name": "Capitan FAP Guillermo Concha Iberico International Airport",
    "city": "Piura",
    "country": "PE",
    "lat": -5.2057499886,
    "lon": -80.6164016724
  },
  "TYL": {
    "name": "Capitan Montes Airport",
    "city": "",
    "country": "PE",
    "lat": -4.5766401291,
    "lon": -81.2540969849
  },
  "NZC": {
    "name": "Maria Reiche Neuman Airport",
    "city": "",
    "country": "PE",
    "lat": -14.8540000916,
    "lon": -74.9615020752
  },
  "CUZ": {
    "name": "Alejandro Velasco Astete International Airport",
    "city": "Cusco",
    "country": "PE",
    "lat": -13.5356998444,
    "lon": -71.9387969971
  },
  "APU": {
    "name": "Apucarana Airport",
    "city": "Apucarana",
    "country": "BR",
    "lat": -23.609500885,
    "lon": -51.3844985962
  },
  "BGV": {
    "name": "Aeroclube de Bento Goncalves Airport",
    "city": "Bento Goncalves",
    "country": "BR",
    "lat": -29.1483325958,
    "lon": -51.5363883972
  },
  "BNU": {
    "name": "Blumenau Airport",
    "city": "Blumenau",
    "country": "BR",
    "lat": -26.8306007385,
    "lon": -49.0903015137
  },
  "CCI": {
    "name": "Concordia Airport",
    "city": "Concordia",
    "country": "BR",
    "lat": -27.1805992126,
    "lon": -52.0527000427
  },
  "CSS": {
    "name": "Cassilandia Airport",
    "city": "Cassilandia",
    "country": "BR",
    "lat": -19.1463890076,
    "lon": -51.6852798462
  },
  "CEL": {
    "name": "Canela Airport",
    "city": "Canela",
    "country": "BR",
    "lat": -29.3701992035,
    "lon": -50.8320007324
  },
  "CKO": {
    "name": "Cornelio Procopio Airport",
    "city": "Cornelio Procopio",
    "country": "BR",
    "lat": -23.1525001526,
    "lon": -50.6025009155
  },
  "GGH": {
    "name": "Cianorte Airport",
    "city": "Cianorte",
    "country": "BR",
    "lat": -23.6914997101,
    "lon": -52.6418991089
  },
  "DOU": {
    "name": "Dourados Airport",
    "city": "Dourados",
    "country": "BR",
    "lat": -22.2019004822,
    "lon": -54.9266014099
  },
  "ERM": {
    "name": "Erechim Airport",
    "city": "Erechim",
    "country": "BR",
    "lat": -27.6618995667,
    "lon": -52.2682991028
  },
  "FBE": {
    "name": "Francisco Beltrao Airport",
    "city": "Francisco Beltrao",
    "country": "BR",
    "lat": -26.0592002869,
    "lon": -53.0634994507
  },
  "QGA": {
    "name": "Guaira Airport",
    "city": "Guaira",
    "country": "BR",
    "lat": -24.0811004639,
    "lon": -54.1916999817
  },
  "HRZ": {
    "name": "Horizontina Airport",
    "city": "Horizontina",
    "country": "BR",
    "lat": -27.638299942,
    "lon": -54.339099884
  },
  "IJU": {
    "name": "Ijui Airport",
    "city": "Ijui",
    "country": "BR",
    "lat": -28.3687000275,
    "lon": -53.8465995789
  },
  "ITQ": {
    "name": "Itaqui Airport",
    "city": "Itaqui",
    "country": "BR",
    "lat": -29.1730995178,
    "lon": -56.5367012024
  },
  "JCB": {
    "name": "Santa Terezinha Airport",
    "city": "Joacaba",
    "country": "BR",
    "lat": -27.1714000702,
    "lon": -51.5532989502
  },
  "CBW": {
    "name": "Campo Mourao Airport",
    "city": "Campo Mourao",
    "country": "BR",
    "lat": -24.0091991425,
    "lon": -52.3568000793
  },
  "QDB": {
    "name": "Cachoeira do Sul Airport",
    "city": "Cachoeira Do Sul",
    "country": "BR",
    "lat": -30.0018997192,
    "lon": -52.9407997131
  },
  "QCR": {
    "name": "Curitibanos Airport",
    "city": "Curitibanos",
    "country": "BR",
    "lat": -27.2824993134,
    "lon": -50.6114006042
  },
  "OAL": {
    "name": "Cacoal Airport",
    "city": "Cacoal",
    "country": "BR",
    "lat": -11.493611,
    "lon": -61.175556
  },
  "LOI": {
    "name": "Helmuth Baungarten Airport",
    "city": "Lontras",
    "country": "BR",
    "lat": -27.1599998474,
    "lon": -49.5424995422
  },
  "ALQ": {
    "name": "Alegrete Novo Airport",
    "city": "Alegrete",
    "country": "BR",
    "lat": -29.8127002716,
    "lon": -55.8933982849
  },
  "QMF": {
    "name": "Mafra Airport",
    "city": "Mafra",
    "country": "BR",
    "lat": -26.1588993073,
    "lon": -49.8321990967
  },
  "QGF": {
    "name": "Montenegro Airport",
    "city": "Montenegro",
    "country": "BR",
    "lat": -29.7194004059,
    "lon": -51.4893989563
  },
  "QHV": {
    "name": "Novo Hamburgo Airport",
    "city": "Novo Hamburgo",
    "country": "BR",
    "lat": -29.696100235,
    "lon": -51.0816993713
  },
  "SQX": {
    "name": "Sao Miguel do Oeste Airport",
    "city": "Sao Miguel Do Oeste",
    "country": "BR",
    "lat": -26.7816009521,
    "lon": -53.5035018921
  },
  "APX": {
    "name": "Arapongas Airport",
    "city": "Arapongas",
    "country": "BR",
    "lat": -23.3528995514,
    "lon": -51.4916992188
  },
  "VRZ": {
    "name": "Lavras Airport",
    "city": "Lavras",
    "country": "BR",
    "lat": -21.2406005859,
    "lon": -44.9639015198
  },
  "AIR": {
    "name": "Aripuanã Airport",
    "city": "Aripuanã",
    "country": "BR",
    "lat": -10.185556,
    "lon": -59.457778
  },
  "PTO": {
    "name": "Pato Branco Airport",
    "city": "Pato Branco",
    "country": "BR",
    "lat": -26.2178001404,
    "lon": -52.6943016052
  },
  "PNG": {
    "name": "Paranagua Airport",
    "city": "Paranagua",
    "country": "BR",
    "lat": -25.5401000977,
    "lon": -48.5312004089
  },
  "PVI": {
    "name": "Paranavai Airport",
    "city": "Paranavai",
    "country": "BR",
    "lat": -23.0898990631,
    "lon": -52.4884986877
  },
  "PBB": {
    "name": "Paranaiba Airport",
    "city": "Paranaiba",
    "country": "BR",
    "lat": -19.6511993408,
    "lon": -51.1994018555
  },
  "QAC": {
    "name": "Castro Airport",
    "city": "Castro",
    "country": "BR",
    "lat": -24.8075008392,
    "lon": -49.9603004456
  },
  "SQY": {
    "name": "Sao Lourenco do Sul Airport",
    "city": "Sao Lourenco Do Sul",
    "country": "BR",
    "lat": -31.3833007813,
    "lon": -52.0327987671
  },
  "QOJ": {
    "name": "Sao Borja Airport",
    "city": "Sao Borja",
    "country": "BR",
    "lat": -28.6548995972,
    "lon": -56.0345993042
  },
  "CSU": {
    "name": "Santa Cruz do Sul Airport",
    "city": "Santa Cruz Do Sul",
    "country": "BR",
    "lat": -29.6840991974,
    "lon": -52.4122009277
  },
  "UMU": {
    "name": "Umuarama Airport",
    "city": "Umuarama",
    "country": "BR",
    "lat": -23.7987003326,
    "lon": -53.3138008118
  },
  "QVB": {
    "name": "Uniao da Vitoria Airport",
    "city": "Uniao Da Vitoria",
    "country": "BR",
    "lat": -26.2334003448,
    "lon": -51.0677986145
  },
  "VIA": {
    "name": "Videira Airport",
    "city": "Videira",
    "country": "BR",
    "lat": -26.9997005463,
    "lon": -51.1418991089
  },
  "CTQ": {
    "name": "Santa Vitoria do Palmar Airport",
    "city": "Santa Vitoria Do Palmar",
    "country": "BR",
    "lat": -33.5022239685,
    "lon": -53.344165802
  },
  "AXE": {
    "name": "Xanxere Airport",
    "city": "Xanxere",
    "country": "BR",
    "lat": -26.8755569458,
    "lon": -52.3730545044
  },
  "AAG": {
    "name": "Arapoti Airport",
    "city": "Arapoti",
    "country": "BR",
    "lat": -24.1039009094,
    "lon": -49.789100647
  },
  "SRA": {
    "name": "Santa Rosa Airport",
    "city": "Santa Rosa",
    "country": "BR",
    "lat": -27.9067001343,
    "lon": -54.520401001
  },
  "PGZ": {
    "name": "Ponta Grossa Airport",
    "city": "Ponta Grossa",
    "country": "BR",
    "lat": -25.1847000122,
    "lon": -50.1441001892
  },
  "ATI": {
    "name": "Artigas International Airport",
    "city": "Artigas",
    "country": "UY",
    "lat": -30.4006996155,
    "lon": -56.507900238
  },
  "CYR": {
    "name": "Laguna de Los Patos International Airport",
    "city": "Colonia",
    "country": "UY",
    "lat": -34.456401825,
    "lon": -57.7705993652
  },
  "DZO": {
    "name": "Santa Bernardina International Airport",
    "city": "Durazno",
    "country": "UY",
    "lat": -33.3588981628,
    "lon": -56.4991989136
  },
  "PDP": {
    "name": "Capitan Corbeta CA Curbelo International Airport",
    "city": "Punta del Este",
    "country": "UY",
    "lat": -34.8550987244,
    "lon": -55.0942993164
  },
  "MLZ": {
    "name": "Cerro Largo International Airport",
    "city": "Melo",
    "country": "UY",
    "lat": -32.3378982544,
    "lon": -54.2167015076
  },
  "MVD": {
    "name": "Carrasco International /General C L Berisso Airport",
    "city": "Montevideo",
    "country": "UY",
    "lat": -34.8384017944,
    "lon": -56.0307998657
  },
  "PDU": {
    "name": "Tydeo Larre Borges Airport",
    "city": "Paysandu",
    "country": "UY",
    "lat": -32.3633003235,
    "lon": -58.0619010925
  },
  "RVY": {
    "name": "Presidente General Don Oscar D. Gestido International Airport",
    "city": "Rivera",
    "country": "UY",
    "lat": -30.9745998383,
    "lon": -55.4762001038
  },
  "STY": {
    "name": "Nueva Hesperides International Airport",
    "city": "Salto",
    "country": "UY",
    "lat": -31.4384994507,
    "lon": -57.9852981567
  },
  "TAW": {
    "name": "Tacuarembo Airport",
    "city": "Tacuarembo",
    "country": "UY",
    "lat": -31.7490005493,
    "lon": -55.9258003235
  },
  "TYT": {
    "name": "Treinta y Tres Airport",
    "city": "Treinta y Tres",
    "country": "UY",
    "lat": -33.2000007629,
    "lon": -54.3499984741
  },
  "VCH": {
    "name": "Vichadero Airport",
    "city": "Vichadero",
    "country": "UY",
    "lat": -31.7670001984,
    "lon": -54.6170005798
  },
  "AGV": {
    "name": "Oswaldo Guevara Mujica Airport",
    "city": "Acarigua",
    "country": "VE",
    "lat": 9.5533752441,
    "lon": -69.2378692627
  },
  "AAO": {
    "name": "Anaco Airport",
    "city": "Anaco",
    "country": "VE",
    "lat": 9.4302253723,
    "lon": -64.4707260132
  },
  "LPJ": {
    "name": "Armando Schwarck Airport",
    "city": "Guayabal",
    "country": "VE",
    "lat": 6.5780501366,
    "lon": -66.8169021606
  },
  "BLA": {
    "name": "General Jose Antonio Anzoategui International Airport",
    "city": "Barcelona",
    "country": "VE",
    "lat": 10.1070995331,
    "lon": -64.689201355
  },
  "BNS": {
    "name": "Barinas Airport",
    "city": "Barinas",
    "country": "VE",
    "lat": 8.6195697784,
    "lon": -70.2208023071
  },
  "BRM": {
    "name": "Barquisimeto International Airport",
    "city": "Barquisimeto",
    "country": "VE",
    "lat": 10.0427465439,
    "lon": -69.3586196899
  },
  "MYC": {
    "name": "Escuela Mariscal Sucre Airport",
    "city": "Maracay",
    "country": "VE",
    "lat": 10.2499780655,
    "lon": -67.6494216919
  },
  "CBL": {
    "name": "Ciudad Bolivar Airport",
    "city": "",
    "country": "VE",
    "lat": 8.1221609116,
    "lon": -63.5369567871
  },
  "CXA": {
    "name": "Caicara del Orinoco Airport",
    "city": "",
    "country": "VE",
    "lat": 7.6255102158,
    "lon": -66.1628036499
  },
  "CUV": {
    "name": "Casigua El Cubo Airport",
    "city": "Casigua El Cubo",
    "country": "VE",
    "lat": 8.7581396103,
    "lon": -72.5363006592
  },
  "CLZ": {
    "name": "Calabozo Airport",
    "city": "Guarico",
    "country": "VE",
    "lat": 8.9246559143,
    "lon": -67.4170913696
  },
  "CAJ": {
    "name": "Canaima Airport",
    "city": "Canaima",
    "country": "VE",
    "lat": 6.2319889069,
    "lon": -62.8544311523
  },
  "VCR": {
    "name": "Carora Airport",
    "city": "Carora",
    "country": "VE",
    "lat": 10.1756029129,
    "lon": -70.0652160645
  },
  "CUP": {
    "name": "General Francisco Bermudez Airport",
    "city": "Carupano",
    "country": "VE",
    "lat": 10.6600141525,
    "lon": -63.261680603
  },
  "CZE": {
    "name": "Jose Leonardo Chirinos Airport",
    "city": "Coro",
    "country": "VE",
    "lat": 11.4149436951,
    "lon": -69.6809005737
  },
  "CUM": {
    "name": "Cumana (Antonio Jose de Sucre) Airport",
    "city": "",
    "country": "VE",
    "lat": 10.4503326416,
    "lon": -64.1304702759
  },
  "isl": {
    "name": "La Tortuga Punta Delgada Airport",
    "city": "Isla La Tortuga",
    "country": "VE",
    "lat": 10.9366674423,
    "lon": -65.2233352661
  },
  "EOR": {
    "name": "El Dorado Airport",
    "city": "Bolivar",
    "country": "VE",
    "lat": 6.7333331108,
    "lon": -61.5833320618
  },
  "EOZ": {
    "name": "Elorza Airport",
    "city": "",
    "country": "VE",
    "lat": 7.0833330154,
    "lon": -69.5333328247
  },
  "GDO": {
    "name": "Guasdalito Airport",
    "city": "",
    "country": "VE",
    "lat": 7.2333331108,
    "lon": -70.8000030518
  },
  "GUI": {
    "name": "Guiria Airport",
    "city": "",
    "country": "VE",
    "lat": 10.5740776062,
    "lon": -62.3126678467
  },
  "GUQ": {
    "name": "Guanare Airport",
    "city": "Guanare",
    "country": "VE",
    "lat": 9.0269441605,
    "lon": -69.7551498413
  },
  "HGE": {
    "name": "Higuerote Airport",
    "city": "",
    "country": "VE",
    "lat": 10.4624528885,
    "lon": -66.0927581787
  },
  "ICA": {
    "name": "Icabaru Airport",
    "city": "",
    "country": "VE",
    "lat": 4.3363199234,
    "lon": -61.7396011353
  },
  "ICC": {
    "name": "Andres Miguel Salazar Marcano Airport",
    "city": "Isla de Coche",
    "country": "VE",
    "lat": 10.7944059372,
    "lon": -63.981590271
  },
  "LSP": {
    "name": "Josefa Camejo International Airport",
    "city": "Paraguana",
    "country": "VE",
    "lat": 11.7807750702,
    "lon": -70.1514968872
  },
  "KAV": {
    "name": "Kavanayen Airport",
    "city": "",
    "country": "VE",
    "lat": 5.632999897,
    "lon": -61.783000946
  },
  "LFR": {
    "name": "La Fria Airport",
    "city": "",
    "country": "VE",
    "lat": 8.2391672134,
    "lon": -72.2710266113
  },
  "MAR": {
    "name": "La Chinita International Airport",
    "city": "Maracaibo",
    "country": "VE",
    "lat": 10.5582084656,
    "lon": -71.7278594971
  },
  "MRD": {
    "name": "Alberto Carnevalli Airport",
    "city": "Merida",
    "country": "VE",
    "lat": 8.58207798,
    "lon": -71.1610412598
  },
  "PMV": {
    "name": "Del Caribe Santiago Marino International Airport",
    "city": "Isla Margarita",
    "country": "VE",
    "lat": 10.9126033783,
    "lon": -63.9665985107
  },
  "CCS": {
    "name": "Maiquetia (Simon Bolivar Internacional) Airport",
    "city": "Caracas",
    "country": "VE",
    "lat": 10.6031169891,
    "lon": -66.9905853271
  },
  "MUN": {
    "name": "Maturin Airport",
    "city": "",
    "country": "VE",
    "lat": 9.754529953,
    "lon": -63.1473999023
  },
  "CBS": {
    "name": "Oro Negro Airport",
    "city": "Cabimas",
    "country": "VE",
    "lat": 10.3306999207,
    "lon": -71.3225021362
  },
  "PYH": {
    "name": "Cacique Aramare Airport",
    "city": "",
    "country": "VE",
    "lat": 5.619989872,
    "lon": -67.6061019897
  },
  "PBL": {
    "name": "General Bartolome Salom International Airport",
    "city": "",
    "country": "VE",
    "lat": 10.4805002213,
    "lon": -68.0729980469
  },
  "PDZ": {
    "name": "Pedernales Airport",
    "city": "",
    "country": "VE",
    "lat": 9.9792404175,
    "lon": -62.2285995483
  },
  "PPH": {
    "name": "Perai Tepuy Airport",
    "city": "",
    "country": "VE",
    "lat": 4.5666670799,
    "lon": -61.4833335876
  },
  "SCI": {
    "name": "Paramillo Airport",
    "city": "",
    "country": "VE",
    "lat": 7.801320076,
    "lon": -72.2029037476
  },
  "PZO": {
    "name": "General Manuel Carlos Piar International Airport",
    "city": "Puerto Ordaz-Ciudad Guayana",
    "country": "VE",
    "lat": 8.2885303497,
    "lon": -62.7603988647
  },
  "PTM": {
    "name": "Palmarito Airport",
    "city": "Palmarito",
    "country": "VE",
    "lat": 7.5666699409,
    "lon": -70.1832962036
  },
  "LRV": {
    "name": "Gran Roque Airport",
    "city": "Los Roques",
    "country": "VE",
    "lat": 11.9499998093,
    "lon": -66.6699981689
  },
  "SVZ": {
    "name": "San Antonio Del Tachira Airport",
    "city": "",
    "country": "VE",
    "lat": 7.8408298492,
    "lon": -72.4396972656
  },
  "SBB": {
    "name": "Santa Barbara de Barinas Airport",
    "city": "Santa Barbara",
    "country": "VE",
    "lat": 7.8035140038,
    "lon": -71.1657180786
  },
  "SNV": {
    "name": "Santa Elena de Uairen Airport",
    "city": "",
    "country": "VE",
    "lat": 4.5549998283,
    "lon": -61.1500015259
  },
  "STD": {
    "name": "Mayor Buenaventura Vivas International Airport",
    "city": "Santo Domingo",
    "country": "VE",
    "lat": 7.5653800964,
    "lon": -72.0351028442
  },
  "SNF": {
    "name": "Sub Teniente Nestor Arias Airport",
    "city": "San Felipe",
    "country": "VE",
    "lat": 10.2786998749,
    "lon": -68.7552032471
  },
  "SFD": {
    "name": "San Fernando De Apure Airport",
    "city": "Inglaterra",
    "country": "VE",
    "lat": 7.8833198547,
    "lon": -67.4440002441
  },
  "SOM": {
    "name": "San Tome Airport",
    "city": "",
    "country": "VE",
    "lat": 8.9451465607,
    "lon": -64.1510848999
  },
  "STB": {
    "name": "Santa Barbara del Zulia Airport",
    "city": "",
    "country": "VE",
    "lat": 8.9745502472,
    "lon": -71.9432525635
  },
  "TUV": {
    "name": "Tucupita Airport",
    "city": "Tucupita",
    "country": "VE",
    "lat": 9.0889940262,
    "lon": -62.0941734314
  },
  "TMO": {
    "name": "Tumeremo Airport",
    "city": "",
    "country": "VE",
    "lat": 7.25,
    "lon": -61.4333343506
  },
  "URM": {
    "name": "Uriman Airport",
    "city": "",
    "country": "VE",
    "lat": 5.3333330154,
    "lon": -62.7666664124
  },
  "VLN": {
    "name": "Arturo Michelena International Airport",
    "city": "Valencia",
    "country": "VE",
    "lat": 10.1497325897,
    "lon": -67.9283981323
  },
  "VIG": {
    "name": "Juan Pablo Perez Alfonso Airport",
    "city": "El Vigia",
    "country": "VE",
    "lat": 8.6241388321,
    "lon": -71.672668457
  },
  "VLV": {
    "name": "Dr. Antonio Nicolas Briceno Airport",
    "city": "Valera",
    "country": "VE",
    "lat": 9.3404779434,
    "lon": -70.5840606689
  },
  "VDP": {
    "name": "Valle de La Pascua Airport",
    "city": "",
    "country": "VE",
    "lat": 9.2220277786,
    "lon": -65.9935836792
  },
  "BAZ": {
    "name": "Barcelos Airport",
    "city": "Barcelos",
    "country": "BR",
    "lat": -0.9812920094,
    "lon": -62.9196014404
  },
  "RBB": {
    "name": "Borba Airport",
    "city": "Borba",
    "country": "BR",
    "lat": -4.4063401222,
    "lon": -59.6024017334
  },
  "CAF": {
    "name": "Carauari Airport",
    "city": "Carauari",
    "country": "BR",
    "lat": -4.8715200424,
    "lon": -66.8974990845
  },
  "CQS": {
    "name": "Costa Marques Airport",
    "city": "Costa Marques",
    "country": "BR",
    "lat": -12.4210996628,
    "lon": -64.2516021729
  },
  "DMT": {
    "name": "Diamantino Airport",
    "city": "Diamantino",
    "country": "BR",
    "lat": -14.3768997192,
    "lon": -56.4003982544
  },
  "DNO": {
    "name": "Dianopolis Airport",
    "city": "Dianopolis",
    "country": "BR",
    "lat": -11.5953998566,
    "lon": -46.846698761
  },
  "ARS": {
    "name": "Estancia das Cascatas Airport",
    "city": "Aragarcas",
    "country": "BR",
    "lat": -15.8966999054,
    "lon": -52.0956001282
  },
  "ERN": {
    "name": "Eirunepe Airport",
    "city": "Eirunepe",
    "country": "BR",
    "lat": -6.6395301819,
    "lon": -69.8797988892
  },
  "CQA": {
    "name": "Canarana Airport",
    "city": "Canarana",
    "country": "BR",
    "lat": -13.5744438171,
    "lon": -52.2705574036
  },
  "SXO": {
    "name": "Sao Felix do Araguaia Airport",
    "city": "Sao Felix Do Araguaia",
    "country": "BR",
    "lat": -11.632399559,
    "lon": -50.6896018982
  },
  "GRP": {
    "name": "Gurupi Airport",
    "city": "Gurupi",
    "country": "BR",
    "lat": -11.7396001816,
    "lon": -49.1321983337
  },
  "AUX": {
    "name": "Araguaina Airport",
    "city": "Araguaina",
    "country": "BR",
    "lat": -7.2278699875,
    "lon": -48.2405014038
  },
  "GGB": {
    "name": "Fazenda Olhos D`agua Airport",
    "city": "Agua Boa",
    "country": "BR",
    "lat": -14.0194444656,
    "lon": -52.1522216797
  },
  "HUW": {
    "name": "Humaita Airport",
    "city": "Humaita",
    "country": "BR",
    "lat": -7.5321202278,
    "lon": -63.072101593
  },
  "IPG": {
    "name": "Ipiranga Airport",
    "city": "Santo Antonio Do Ica",
    "country": "BR",
    "lat": -2.9390699863,
    "lon": -69.6940002441
  },
  "IDO": {
    "name": "Santa Izabel do Morro Airport",
    "city": "Cristalandia",
    "country": "BR",
    "lat": -11.5722999573,
    "lon": -50.6661987305
  },
  "JPR": {
    "name": "Ji-Parana Airport",
    "city": "Ji-Parana",
    "country": "BR",
    "lat": -10.8708000183,
    "lon": -61.8465003967
  },
  "JIA": {
    "name": "Juina Airport",
    "city": "Juina",
    "country": "BR",
    "lat": -11.4194440842,
    "lon": -58.7016677856
  },
  "JRN": {
    "name": "Juruena Airport",
    "city": "Juruena",
    "country": "BR",
    "lat": -10.3058328629,
    "lon": -58.4894447327
  },
  "JTI": {
    "name": "Jatai Airport",
    "city": "Jatai",
    "country": "BR",
    "lat": -17.8299007416,
    "lon": -51.7729988098
  },
  "CCX": {
    "name": "Caceres Airport",
    "city": "Caceres",
    "country": "BR",
    "lat": -16.0436000824,
    "lon": -57.629901886
  },
  "CIZ": {
    "name": "Coari Airport",
    "city": "Coari",
    "country": "BR",
    "lat": -4.134059906,
    "lon": -63.132598877
  },
  "NSR": {
    "name": "Serra da Capivara Airport",
    "city": "Sao Raimundo Nonato",
    "country": "BR",
    "lat": -9.082778,
    "lon": -42.644444
  },
  "TLZ": {
    "name": "Catalao Airport",
    "city": "Catalao",
    "country": "BR",
    "lat": -18.2168006897,
    "lon": -47.8997001648
  },
  "LBR": {
    "name": "Labrea Airport",
    "city": "Labrea",
    "country": "BR",
    "lat": -7.2789697647,
    "lon": -64.7695007324
  },
  "RVD": {
    "name": "General Leite de Castro Airport",
    "city": "Rio Verde",
    "country": "BR",
    "lat": -17.8347225189,
    "lon": -50.956111908
  },
  "MBZ": {
    "name": "Maues Airport",
    "city": "Maues",
    "country": "BR",
    "lat": -3.3721699715,
    "lon": -57.7248001099
  },
  "NVP": {
    "name": "Novo Aripuana Airport",
    "city": "Novo Aripuana",
    "country": "BR",
    "lat": -5.1180300713,
    "lon": -60.3648986816
  },
  "AQM": {
    "name": "Nova Vida Airport",
    "city": "Ariquemes",
    "country": "BR",
    "lat": -10.1780557632,
    "lon": -62.8255577087
  },
  "BCR": {
    "name": "Novo Campo Airport",
    "city": "Boca Do Acre",
    "country": "BR",
    "lat": -8.8345603943,
    "lon": -67.3124008179
  },
  "NQL": {
    "name": "Niquelandia Airport",
    "city": "Niquelandia",
    "country": "BR",
    "lat": -14.4349002838,
    "lon": -48.4915008545
  },
  "APS": {
    "name": "Anapolis Airport",
    "city": "Anapolis",
    "country": "BR",
    "lat": -16.3623008728,
    "lon": -48.9271011353
  },
  "FBA": {
    "name": "Fonte Boa Airport",
    "city": "Fonte Boa",
    "country": "BR",
    "lat": -2.5326099396,
    "lon": -66.0831985474
  },
  "PBV": {
    "name": "Porto dos Gauchos Airport",
    "city": "Porto Dos Gauchos",
    "country": "BR",
    "lat": -11.5169439316,
    "lon": -57.3338890076
  },
  "PIN": {
    "name": "Parintins Airport",
    "city": "Parintins",
    "country": "BR",
    "lat": -2.673019886,
    "lon": -56.7771987915
  },
  "PBQ": {
    "name": "Pimenta Bueno Airport",
    "city": "Pimenta Bueno",
    "country": "BR",
    "lat": -11.6415996552,
    "lon": -61.1791000366
  },
  "PBX": {
    "name": "Fazenda Piraguassu Airport",
    "city": "Porto Alegre Do Norte",
    "country": "BR",
    "lat": -10.8611106873,
    "lon": -51.6850013733
  },
  "AAI": {
    "name": "Arraias Airport",
    "city": "Arraias",
    "country": "BR",
    "lat": -13.023888588,
    "lon": -46.8855552673
  },
  "ROO": {
    "name": "Rondonopolis Airport",
    "city": "Rondonopolis",
    "country": "BR",
    "lat": -16.5860004425,
    "lon": -54.7248001099
  },
  "OPS": {
    "name": "Presidente Joao Batista Figueiredo Airport",
    "city": "Sinop",
    "country": "BR",
    "lat": -11.8850002289,
    "lon": -55.5861091614
  },
  "STZ": {
    "name": "Santa Terezinha Airport",
    "city": "Santa Terezinha",
    "country": "BR",
    "lat": -10.4647216797,
    "lon": -50.518611908
  },
  "IRZ": {
    "name": "Tapuruquara Airport",
    "city": "Santa Isabel Do Rio Negro",
    "country": "BR",
    "lat": -0.4169439971,
    "lon": -65.0338897705
  },
  "TGQ": {
    "name": "Tangara da Serra Airport",
    "city": "Tangara Da Serra",
    "country": "BR",
    "lat": -14.6619997025,
    "lon": -57.4435005188
  },
  "AZL": {
    "name": "Fazenda Tucunare Airport",
    "city": "Sapezal",
    "country": "BR",
    "lat": -13.4655278136,
    "lon": -58.8669347763
  },
  "QHN": {
    "name": "Taguatinga Airport",
    "city": "Taguatinga",
    "country": "BR",
    "lat": -12.433889389,
    "lon": -46.400554657
  },
  "SQM": {
    "name": "Sao Miguel do Araguaia Airport",
    "city": "Sao Miguel Do Araguaia",
    "country": "BR",
    "lat": -13.3312997818,
    "lon": -50.1976013184
  },
  "MTG": {
    "name": "Vila Bela da Santissima Trindade Airport",
    "city": "Vila Bela Da Santissima Trindade",
    "country": "BR",
    "lat": -15.0152778625,
    "lon": -59.9672203064
  },
  "VLP": {
    "name": "Vila Rica Airport",
    "city": "Vila Rica",
    "country": "BR",
    "lat": -9.9794435501,
    "lon": -51.1422233582
  },
  "MBK": {
    "name": "Regional Orlando Villas Boas Airport",
    "city": "Matupa",
    "country": "BR",
    "lat": -10.1702775955,
    "lon": -54.9527778625
  },
  "NOK": {
    "name": "Xavantina Airport",
    "city": "Nova Xavantina",
    "country": "BR",
    "lat": -14.6983003616,
    "lon": -52.3464012146
  },
  "AHL": {
    "name": "Aishalton Airport",
    "city": "Aishalton",
    "country": "GY",
    "lat": 2.4865300655,
    "lon": -59.3134002686
  },
  "NAI": {
    "name": "Annai Airport",
    "city": "Annai",
    "country": "GY",
    "lat": 3.9594399929,
    "lon": -59.1241989136
  },
  "BCG": {
    "name": "Bemichi Airport",
    "city": "Bemichi",
    "country": "GY",
    "lat": 7.6999998093,
    "lon": -59.1666603088
  },
  "BMJ": {
    "name": "Baramita Airport",
    "city": "Baramita",
    "country": "GY",
    "lat": 7.3701200485,
    "lon": -60.4879989624
  },
  "GFO": {
    "name": "Bartica A Airport",
    "city": "Bartica",
    "country": "GY",
    "lat": 6.3747701645,
    "lon": -58.6380996704
  },
  "GEO": {
    "name": "Cheddi Jagan International Airport",
    "city": "Georgetown",
    "country": "GY",
    "lat": 6.4985499382,
    "lon": -58.2541007996
  },
  "OGL": {
    "name": "Ogle Airport",
    "city": "Ogle",
    "country": "GY",
    "lat": 6.8062801361,
    "lon": -58.1058998108
  },
  "IMB": {
    "name": "Imbaimadai Airport",
    "city": "Imbaimadai",
    "country": "GY",
    "lat": 5.7081098557,
    "lon": -60.2942008972
  },
  "KAR": {
    "name": "Kamarang Airport",
    "city": "Kamarang",
    "country": "GY",
    "lat": 5.8653402328,
    "lon": -60.614200592
  },
  "KRM": {
    "name": "Karanambo Airport",
    "city": "Karanambo",
    "country": "GY",
    "lat": 3.751940012,
    "lon": -59.3097000122
  },
  "KRG": {
    "name": "Karasabai Airport",
    "city": "Karasabai",
    "country": "GY",
    "lat": 4.0333299637,
    "lon": -59.5332984924
  },
  "KTO": {
    "name": "Kato Airport",
    "city": "Kato",
    "country": "GY",
    "lat": 4.6491599083,
    "lon": -59.8321990967
  },
  "LUB": {
    "name": "Lumid Pau Airport",
    "city": "Lumid Pau",
    "country": "GY",
    "lat": 2.3939299583,
    "lon": -59.4410018921
  },
  "LTM": {
    "name": "Lethem Airport",
    "city": "Lethem",
    "country": "GY",
    "lat": 3.3727600574,
    "lon": -59.7893981934
  },
  "USI": {
    "name": "Mabaruma Airport",
    "city": "Mabaruma",
    "country": "GY",
    "lat": 8.1999998093,
    "lon": -59.7832984924
  },
  "MHA": {
    "name": "Mahdia Airport",
    "city": "Mahdia",
    "country": "GY",
    "lat": 5.277490139,
    "lon": -59.1511001587
  },
  "MYM": {
    "name": "Monkey Mountain Airport",
    "city": "Monkey Mountain",
    "country": "GY",
    "lat": 4.4833297729,
    "lon": -59.6833000183
  },
  "MWJ": {
    "name": "Matthews Ridge Airport",
    "city": "Matthews Ridge",
    "country": "GY",
    "lat": 7.488112,
    "lon": -60.184777
  },
  "QSX": {
    "name": "New Amsterdam Airport",
    "city": "New Amsterdam",
    "country": "GY",
    "lat": 6.244324,
    "lon": -57.474172
  },
  "ORJ": {
    "name": "Orinduik Airport",
    "city": "Orinduik",
    "country": "GY",
    "lat": 4.7252697945,
    "lon": -60.0349998474
  },
  "PRR": {
    "name": "Paruma Airport",
    "city": "Paruma",
    "country": "GY",
    "lat": 5.8154501915,
    "lon": -61.0554008484
  }
}